[
  {
    "name": "カラオケBanBan岸和田中井町",
    "address": "596-0003\n岸和田市 中井町3-21-1",
    "tel": "050-3134-0786",
    "openingHours": "",
    "tags": [
      "その他",
      "泉州"
    ],
    "url": "https://goto-eat.weare.osaka-info.jp/gotoeat/gs380804/"
  },
  {
    "name": "カラオケBanBan阪南",
    "address": "599-0212\n阪南市 自然田315-3",
    "tel": "050-3134-0553",
    "openingHours": "",
    "tags": [
      "その他",
      "泉州"
    ],
    "url": "https://goto-eat.weare.osaka-info.jp/gotoeat/gs380798/"
  },
  {
    "name": "コンシェルジュ阪南店",
    "address": "599-0201\n阪南市 尾崎町169",
    "tel": "072-488-7785",
    "openingHours": "１２：００～２：００",
    "tags": [
      "その他",
      "泉州"
    ],
    "url": "https://goto-eat.weare.osaka-info.jp/gotoeat/gs380524/"
  },
  {
    "name": "カラオケライブ岸和田店",
    "address": "596-0826\n岸和田市 作才町1丁目３－２",
    "tel": "072-432-3841",
    "openingHours": "",
    "tags": [
      "その他",
      "泉州"
    ],
    "url": "https://goto-eat.weare.osaka-info.jp/gotoeat/gs380497/"
  },
  {
    "name": "ビッグエコー岸和田２６店",
    "address": "596-0821\n岸和田市 小松里町 2427",
    "tel": "072-441-4426",
    "openingHours": "11:00～5:00",
    "tags": [
      "その他",
      "泉州"
    ],
    "url": "https://goto-eat.weare.osaka-info.jp/gotoeat/gs380440/"
  },
  {
    "name": "ラウンドワン岸和田店",
    "address": "569-0049\n岸和田市 八阪町2-11-1",
    "tel": "072-429-1100",
    "openingHours": "平日10時～6時週末24時間営業",
    "tags": [
      "その他",
      "泉州"
    ],
    "url": "https://goto-eat.weare.osaka-info.jp/gotoeat/gs380432/"
  },
  {
    "name": "金と銀　熊取大久保南店",
    "address": "590-0405\n泉南郡熊取町 大久保南2丁目17-1",
    "tel": "072-453-2238",
    "openingHours": "11時～20時",
    "tags": [
      "その他",
      "泉州"
    ],
    "url": "https://goto-eat.weare.osaka-info.jp/gotoeat/gs379674/"
  },
  {
    "name": "SHR",
    "address": "598-0037\n泉佐野市 羽倉崎上町2-3451-1",
    "tel": "080-4025-5586",
    "openingHours": "",
    "tags": [
      "その他",
      "泉州"
    ],
    "url": "https://goto-eat.weare.osaka-info.jp/gotoeat/gs379526/"
  },
  {
    "name": "牛かつ専門店うし寅",
    "address": "596-0061\n岸和田市 大北町11-33",
    "tel": "0724-31-8886",
    "openingHours": "",
    "tags": [
      "和食",
      "泉州"
    ],
    "url": "https://goto-eat.weare.osaka-info.jp/gotoeat/gs379396/"
  },
  {
    "name": "月のうさぎ",
    "address": "599-0215\n阪南市 さつき台１－１－１",
    "tel": "072-471-2431",
    "openingHours": "17：00～24：00",
    "tags": [
      "居酒屋",
      "泉州"
    ],
    "url": "https://goto-eat.weare.osaka-info.jp/gotoeat/gs379392/"
  },
  {
    "name": "酒寮　彩雅",
    "address": "596-0806\n岸和田市 摩湯町668-1D号",
    "tel": "072-442-1566",
    "openingHours": "",
    "tags": [
      "その他",
      "泉州"
    ],
    "url": "https://goto-eat.weare.osaka-info.jp/gotoeat/gs379343/"
  },
  {
    "name": "インド料理サンガム岸和田店",
    "address": "596-0825\n岸和田市 土生町4丁目3-1",
    "tel": "072-428-0149",
    "openingHours": "11時～22時30分",
    "tags": [
      "カレー",
      "泉州"
    ],
    "url": "https://goto-eat.weare.osaka-info.jp/gotoeat/gs379341/"
  },
  {
    "name": "BALIHAN BAR",
    "address": "596-0045\n岸和田市 別所町1-1-25",
    "tel": "072-433-2111",
    "openingHours": "19:30～24:00",
    "tags": [
      "その他",
      "泉州"
    ],
    "url": "https://goto-eat.weare.osaka-info.jp/gotoeat/gs379298/"
  },
  {
    "name": "お食事処　イルカ",
    "address": "598-0051\n泉佐野市 新町二丁目5187-101 青空市場2階",
    "tel": "072-463-1818",
    "openingHours": "平日:10時～14時30分ラストオーダー　土日祝:10時～15時受付終了",
    "tags": [
      "寿司・魚料理",
      "泉州"
    ],
    "url": "https://goto-eat.weare.osaka-info.jp/gotoeat/gs379289/"
  },
  {
    "name": "魚べい貝塚店",
    "address": "597-0053\n貝塚市 地蔵堂166-1",
    "tel": "072-493-4101",
    "openingHours": "11:00～21:30",
    "tags": [
      "寿司・魚料理",
      "泉州"
    ],
    "url": "https://goto-eat.weare.osaka-info.jp/gotoeat/gs379219/"
  },
  {
    "name": "呑み処　城",
    "address": "596-0051\n岸和田市 岸野町12-7",
    "tel": "080-3808-8200",
    "openingHours": "",
    "tags": [
      "居酒屋",
      "泉州"
    ],
    "url": "https://goto-eat.weare.osaka-info.jp/gotoeat/gs379170/"
  },
  {
    "name": "季節料理　安曇野",
    "address": "596-0005\n岸和田市 春木旭町22-29",
    "tel": "072-443-5650",
    "openingHours": "",
    "tags": [
      "和食",
      "泉州"
    ],
    "url": "https://goto-eat.weare.osaka-info.jp/gotoeat/gs374285/"
  },
  {
    "name": "大阪王将泉佐野安松店",
    "address": "598-0033\n泉佐野市 南中安松 660-1",
    "tel": "072-493-3598",
    "openingHours": "11:00-23:00",
    "tags": [
      "中華料理",
      "泉州"
    ],
    "url": "https://goto-eat.weare.osaka-info.jp/gotoeat/gs374028/"
  },
  {
    "name": "ORSO",
    "address": "598-0007\n泉佐野市 上町3-8-5",
    "tel": "072-468-6355",
    "openingHours": "11:30～15:00　17:30～23:00",
    "tags": [
      "イタリアン・フレンチ",
      "泉州"
    ],
    "url": "https://goto-eat.weare.osaka-info.jp/gotoeat/gs374025/"
  },
  {
    "name": "948研究所",
    "address": "596-0005\n岸和田市 春木旭町9-16",
    "tel": "070-8580-0948",
    "openingHours": "18時～23時",
    "tags": [
      "居酒屋",
      "泉州"
    ],
    "url": "https://goto-eat.weare.osaka-info.jp/gotoeat/gs373817/"
  },
  {
    "name": "ココイロカフェ泉佐野店",
    "address": "598-0006\n泉佐野市 市場西3-6-11",
    "tel": "072-462-8866",
    "openingHours": "",
    "tags": [
      "カフェ・スイーツ",
      "泉州"
    ],
    "url": "https://goto-eat.weare.osaka-info.jp/gotoeat/gs373682/"
  },
  {
    "name": "麺酒ゃ！サンポルコ",
    "address": "596-0046\n岸和田市 藤井町1-16-33",
    "tel": "072-468-7841",
    "openingHours": "",
    "tags": [
      "居酒屋",
      "泉州"
    ],
    "url": "https://goto-eat.weare.osaka-info.jp/gotoeat/gs373630/"
  },
  {
    "name": "なご弥",
    "address": "599-0311\n泉南郡岬町 多奈川谷川3821 釣り堀オーパ2F",
    "tel": "090-5054-3967",
    "openingHours": "10:00～22：00",
    "tags": [
      "和食",
      "泉州"
    ],
    "url": "https://goto-eat.weare.osaka-info.jp/gotoeat/gs373629/"
  },
  {
    "name": "居酒屋とみや",
    "address": "596-0045\n岸和田市 別所町１丁目2番４号",
    "tel": "072-423-4856",
    "openingHours": "５時から11時",
    "tags": [
      "居酒屋",
      "泉州"
    ],
    "url": "https://goto-eat.weare.osaka-info.jp/gotoeat/gs373509/"
  },
  {
    "name": "居酒屋もも太郎",
    "address": "598-0043\n泉佐野市 大西2-4-12",
    "tel": "072-462-7211",
    "openingHours": "17時～22時迄",
    "tags": [
      "居酒屋",
      "泉州"
    ],
    "url": "https://goto-eat.weare.osaka-info.jp/gotoeat/gs373232/"
  },
  {
    "name": "鉄板バルじゅじゅ",
    "address": "590-0403\n泉南郡熊取町 大久保中2-7-7",
    "tel": "072-457-7277",
    "openingHours": "17:30-22:00",
    "tags": [
      "お好み焼き・たこ焼き",
      "泉州"
    ],
    "url": "https://goto-eat.weare.osaka-info.jp/gotoeat/gs372533/"
  },
  {
    "name": "レストランシャトレーヌ",
    "address": "596-0006\n岸和田市 春木若松町9-28",
    "tel": "072-439-9516",
    "openingHours": "11時半から14時迄17時半から21時迄",
    "tags": [
      "イタリアン・フレンチ",
      "泉州"
    ],
    "url": "https://goto-eat.weare.osaka-info.jp/gotoeat/gs372411/"
  },
  {
    "name": "胡麻sesame",
    "address": "596-0825\n岸和田市 土生町3-3-10 カメヤ第3ビル104",
    "tel": "090-9997-1454",
    "openingHours": "",
    "tags": [
      "居酒屋",
      "泉州"
    ],
    "url": "https://goto-eat.weare.osaka-info.jp/gotoeat/gs372275/"
  },
  {
    "name": "泉州海鮮きんちゃく家",
    "address": "596-0015\n岸和田市 地蔵浜町7-1",
    "tel": "072-436-3866",
    "openingHours": "7:00～15:00",
    "tags": [
      "和食",
      "泉州"
    ],
    "url": "https://goto-eat.weare.osaka-info.jp/gotoeat/gs372234/"
  },
  {
    "name": "mum's kitchen きくがわ",
    "address": "598-0054\n泉佐野市 栄町8-1 メゾンドフルール1F",
    "tel": "072-469-3618",
    "openingHours": "11:00～14:00　17:00～22:00",
    "tags": [
      "居酒屋",
      "泉州"
    ],
    "url": "https://goto-eat.weare.osaka-info.jp/gotoeat/gs372176/"
  },
  {
    "name": "寿司屋にし川",
    "address": "598-0093\n泉南郡田尻町 りんくうポート北1番",
    "tel": "072-465-2468",
    "openingHours": "平日：11時～14時、18時～21時　日曜：7時～14時、18時～21時",
    "tags": [
      "寿司・魚料理",
      "泉州"
    ],
    "url": "https://goto-eat.weare.osaka-info.jp/gotoeat/gs372159/"
  },
  {
    "name": "ますや焼肉店",
    "address": "596-0006\n岸和田市 春木若松町7-36",
    "tel": "072-437-0800",
    "openingHours": "17:00-23:00",
    "tags": [
      "焼肉・ホルモン",
      "泉州"
    ],
    "url": "https://goto-eat.weare.osaka-info.jp/gotoeat/gs372059/"
  },
  {
    "name": "目利きの銀次 岸和田西口駅前店",
    "address": "596-0054\n岸和田市 宮本町16-21 岸和田駅前長岡店舗 1階",
    "tel": "072-430-4488",
    "openingHours": "詳細は店舗従業員までお問い合わせください。",
    "tags": [
      "居酒屋",
      "泉州"
    ],
    "url": "https://goto-eat.weare.osaka-info.jp/gotoeat/gs371988/"
  },
  {
    "name": "香港スタイル飲茶レストラン",
    "address": "597-0062\n貝塚市 澤156",
    "tel": "072-438-0228",
    "openingHours": "",
    "tags": [
      "中華料理",
      "泉州"
    ],
    "url": "https://goto-eat.weare.osaka-info.jp/gotoeat/gs371965/"
  },
  {
    "name": "大阪王将　泉佐野店",
    "address": "598-0055\n泉佐野市 若宮町10-25",
    "tel": "072-464-5489",
    "openingHours": "",
    "tags": [
      "中華料理",
      "泉州"
    ],
    "url": "https://goto-eat.weare.osaka-info.jp/gotoeat/gs371593/"
  },
  {
    "name": "錦綉",
    "address": "598-0071\n泉佐野市 鶴原4丁目1-31",
    "tel": "072-458-1661",
    "openingHours": "",
    "tags": [
      "中華料理",
      "泉州"
    ],
    "url": "https://goto-eat.weare.osaka-info.jp/gotoeat/gs371584/"
  },
  {
    "name": "ダイニング和実や",
    "address": "598-0046\n泉佐野市 羽倉崎1-3300-18",
    "tel": "072-486-7538",
    "openingHours": "17：00～0：00",
    "tags": [
      "居酒屋",
      "泉州"
    ],
    "url": "https://goto-eat.weare.osaka-info.jp/gotoeat/gs371572/"
  },
  {
    "name": "雀庵はなれ",
    "address": "590-0523\n泉南市 信達岡中1212",
    "tel": "072-480-5500",
    "openingHours": "",
    "tags": [
      "居酒屋",
      "泉州"
    ],
    "url": "https://goto-eat.weare.osaka-info.jp/gotoeat/gs371527/"
  },
  {
    "name": "ギュウクシ アイヤー",
    "address": "599-0202\n阪南市 下出42-5",
    "tel": "070-2676-4542",
    "openingHours": "17時から24時まで",
    "tags": [
      "居酒屋",
      "泉州"
    ],
    "url": "https://goto-eat.weare.osaka-info.jp/gotoeat/gs371327/"
  },
  {
    "name": "jijibaba",
    "address": "590-0402\n泉南郡熊取町 大久保北２丁目18番26号",
    "tel": "072-453-9119",
    "openingHours": "17時～23時",
    "tags": [
      "お好み焼き・たこ焼き",
      "泉州"
    ],
    "url": "https://goto-eat.weare.osaka-info.jp/gotoeat/gs371002/"
  },
  {
    "name": "炉ばたかんと",
    "address": "596-0076\n岸和田市 野田町3丁目3-26 ロードワンビル1階",
    "tel": "072-438-8592",
    "openingHours": "16時~22時30分",
    "tags": [
      "居酒屋",
      "泉州"
    ],
    "url": "https://goto-eat.weare.osaka-info.jp/gotoeat/gs371001/"
  },
  {
    "name": "いち",
    "address": "596-0047\n岸和田市 上野町東11-19",
    "tel": "072-449-0325",
    "openingHours": "18時-23時",
    "tags": [
      "お好み焼き・たこ焼き",
      "泉州"
    ],
    "url": "https://goto-eat.weare.osaka-info.jp/gotoeat/gs370998/"
  },
  {
    "name": "ヴィ・ド・フランス東岸和田店",
    "address": "596-0825\n岸和田市 土生町4丁目1番地-1 JR東岸和田駅　ビエラ東岸和田内",
    "tel": "072-420-1050",
    "openingHours": "平日 土 7:00 ～ 21:00　　日祝 7:00～20:00",
    "tags": [
      "その他",
      "泉州"
    ],
    "url": "https://goto-eat.weare.osaka-info.jp/gotoeat/gs370892/"
  },
  {
    "name": "燻し焼鶏LOL",
    "address": "598-0062\n泉佐野市 下瓦屋1-1-49",
    "tel": "072-425-7987",
    "openingHours": "",
    "tags": [
      "居酒屋",
      "泉州"
    ],
    "url": "https://goto-eat.weare.osaka-info.jp/gotoeat/gs370860/"
  },
  {
    "name": "プランタン",
    "address": "599-0203\n阪南市 黒田３４５",
    "tel": "070-1799-5884",
    "openingHours": "7：00-18：00",
    "tags": [
      "カフェ・スイーツ",
      "泉州"
    ],
    "url": "https://goto-eat.weare.osaka-info.jp/gotoeat/gs370579/"
  },
  {
    "name": "グリル志紀",
    "address": "596-0105\n岸和田市 内畑町１０３－３",
    "tel": "072-479-1907",
    "openingHours": "11時30分～14時と17時30分～21時",
    "tags": [
      "洋食・西洋料理",
      "泉州"
    ],
    "url": "https://goto-eat.weare.osaka-info.jp/gotoeat/gs370479/"
  },
  {
    "name": "炉ばた焼たつみ",
    "address": "590-0505\n泉南市 信達大苗代1125-70",
    "tel": "072-482-4918",
    "openingHours": "17:00～24:00",
    "tags": [
      "居酒屋",
      "泉州"
    ],
    "url": "https://goto-eat.weare.osaka-info.jp/gotoeat/gs370460/"
  },
  {
    "name": "居酒屋おばんざいひまわり",
    "address": "598-0062\n泉佐野市 下瓦屋１-１-５５ 山口ビル",
    "tel": "072-462-6118",
    "openingHours": "12時～22時",
    "tags": [
      "居酒屋",
      "泉州"
    ],
    "url": "https://goto-eat.weare.osaka-info.jp/gotoeat/gs370446/"
  },
  {
    "name": "一休　泉佐野店",
    "address": "598-0021\n泉佐野市 日根野4204-1",
    "tel": "072-469-0068",
    "openingHours": "",
    "tags": [
      "居酒屋",
      "泉州"
    ],
    "url": "https://goto-eat.weare.osaka-info.jp/gotoeat/gs370402/"
  },
  {
    "name": "一休　田尻店",
    "address": "598-0092\n泉南郡田尻町 吉見287-1",
    "tel": "072-465-1148",
    "openingHours": "",
    "tags": [
      "居酒屋",
      "泉州"
    ],
    "url": "https://goto-eat.weare.osaka-info.jp/gotoeat/gs370401/"
  },
  {
    "name": "そこれこれ豚肉屋",
    "address": "596-0821\n岸和田市 小松里町1057-1-105 パルハイツ久米田",
    "tel": "072-444-8960",
    "openingHours": "11:00～14:30 17:30～21:30",
    "tags": [
      "和食",
      "泉州"
    ],
    "url": "https://goto-eat.weare.osaka-info.jp/gotoeat/gs370397/"
  },
  {
    "name": "ふぐ政",
    "address": "596-0001\n岸和田市 磯上町1-1-4 ふぐ政",
    "tel": "072-437-4682",
    "openingHours": "12:00～22:00",
    "tags": [
      "和食",
      "泉州"
    ],
    "url": "https://goto-eat.weare.osaka-info.jp/gotoeat/gs370394/"
  },
  {
    "name": "丸亀うどん",
    "address": "596-0045\n岸和田市 別所町2-16-16",
    "tel": "072-437-4704",
    "openingHours": "",
    "tags": [
      "うどん・そば",
      "泉州"
    ],
    "url": "https://goto-eat.weare.osaka-info.jp/gotoeat/gs367950/"
  },
  {
    "name": "お好み焼　ささ木",
    "address": "597-0015\n貝塚市 堀２丁目２２-２",
    "tel": "072-422-3804",
    "openingHours": "",
    "tags": [
      "お好み焼き・たこ焼き",
      "泉州"
    ],
    "url": "https://goto-eat.weare.osaka-info.jp/gotoeat/gs367640/"
  },
  {
    "name": "花明かり",
    "address": "598-0048\n泉佐野市 りんくう往来北1番 りんくうパビリオ2F",
    "tel": "072-464-0820",
    "openingHours": "",
    "tags": [
      "居酒屋",
      "泉州"
    ],
    "url": "https://goto-eat.weare.osaka-info.jp/gotoeat/gs367596/"
  },
  {
    "name": "居笑屋天国　田尻店",
    "address": "598-0092\n泉南郡田尻町 吉見168-2",
    "tel": "072-466-3330",
    "openingHours": "18:00～3:00",
    "tags": [
      "居酒屋",
      "泉州"
    ],
    "url": "https://goto-eat.weare.osaka-info.jp/gotoeat/gs367542/"
  },
  {
    "name": "居酒屋天国　和泉大宮店",
    "address": "596-0046\n岸和田市 藤井町1丁目12-11",
    "tel": "072-437-1059",
    "openingHours": "17:00～2:00",
    "tags": [
      "居酒屋",
      "泉州"
    ],
    "url": "https://goto-eat.weare.osaka-info.jp/gotoeat/gs367541/"
  },
  {
    "name": "居酒屋天国　りんくう店",
    "address": "598-0048\n泉佐野市 りんくう往来北1 りんくうパピリオ　2F",
    "tel": "072-469-1059",
    "openingHours": "15:00～24:00",
    "tags": [
      "居酒屋",
      "泉州"
    ],
    "url": "https://goto-eat.weare.osaka-info.jp/gotoeat/gs367540/"
  },
  {
    "name": "ブロンコビリー岸和田店",
    "address": "596-0004\n岸和田市 荒木町1-33-8",
    "tel": "072-449-0429",
    "openingHours": "11時から23時",
    "tags": [
      "洋食・西洋料理",
      "泉州"
    ],
    "url": "https://goto-eat.weare.osaka-info.jp/gotoeat/gs367526/"
  },
  {
    "name": "Y's cafe",
    "address": "598-0021\n泉佐野市 日根野2087",
    "tel": "080-4484-7744",
    "openingHours": "11時30分～15時　18時30分~(要予約)",
    "tags": [
      "カフェ・スイーツ",
      "泉州"
    ],
    "url": "https://goto-eat.weare.osaka-info.jp/gotoeat/gs367481/"
  },
  {
    "name": "お食事酒処ねづ",
    "address": "596-0831\n岸和田市 畑町4-1-20",
    "tel": "072-427-5808",
    "openingHours": "16～22時",
    "tags": [
      "居酒屋",
      "泉州"
    ],
    "url": "https://goto-eat.weare.osaka-info.jp/gotoeat/gs367426/"
  },
  {
    "name": "和ダイニング　居心ち家",
    "address": "596-0044\n岸和田市 西之内町10-43",
    "tel": "0724-47-6446",
    "openingHours": "18時～24時",
    "tags": [
      "居酒屋",
      "泉州"
    ],
    "url": "https://goto-eat.weare.osaka-info.jp/gotoeat/gs367233/"
  },
  {
    "name": "うまいもんや　ちぇりぃあん",
    "address": "599-0223\n阪南市 光陽台1-16-12 フーリン2号館",
    "tel": "072-472-7667",
    "openingHours": "17時から12時",
    "tags": [
      "居酒屋",
      "泉州"
    ],
    "url": "https://goto-eat.weare.osaka-info.jp/gotoeat/gs367195/"
  },
  {
    "name": "さくら堂カフェ",
    "address": "598-0062\n泉佐野市 下瓦屋1-1-55 2F",
    "tel": "072-487-3333",
    "openingHours": "",
    "tags": [
      "お好み焼き・たこ焼き",
      "泉州"
    ],
    "url": "https://goto-eat.weare.osaka-info.jp/gotoeat/gs366929/"
  },
  {
    "name": "L.grow＋",
    "address": "590-0535\n泉南市 りんくう南浜３番２０１",
    "tel": "072-479-5594",
    "openingHours": "",
    "tags": [
      "洋食・西洋料理",
      "泉州"
    ],
    "url": "https://goto-eat.weare.osaka-info.jp/gotoeat/gs366820/"
  },
  {
    "name": "Cafe&Barmoto",
    "address": "598-0007\n泉佐野市 上町3-11-25 南海ビルサザンコート泉佐野",
    "tel": "072-463-8383",
    "openingHours": "7時～24時",
    "tags": [
      "居酒屋",
      "泉州"
    ],
    "url": "https://goto-eat.weare.osaka-info.jp/gotoeat/gs366736/"
  },
  {
    "name": "まかない料理はやて",
    "address": "598-0012\n泉佐野市 高松東1-10-18",
    "tel": "072-469-0211",
    "openingHours": "17時から22時",
    "tags": [
      "居酒屋",
      "泉州"
    ],
    "url": "https://goto-eat.weare.osaka-info.jp/gotoeat/gs366537/"
  },
  {
    "name": "ASAインド料理",
    "address": "596-0014\n岸和田市 港緑町3-1-2F,202",
    "tel": "072-447-8157",
    "openingHours": "11:00~22:00",
    "tags": [
      "カレー",
      "泉州"
    ],
    "url": "https://goto-eat.weare.osaka-info.jp/gotoeat/gs366516/"
  },
  {
    "name": "ワイン酒場　かっちゃん",
    "address": "598-0007\n泉佐野市 上町3丁目8－25 植林第一ビル",
    "tel": "0724-69-7605",
    "openingHours": "17：00～24：00",
    "tags": [
      "居酒屋",
      "泉州"
    ],
    "url": "https://goto-eat.weare.osaka-info.jp/gotoeat/gs366479/"
  },
  {
    "name": "245ie-mesi",
    "address": "598-0053\n泉佐野市 大宮町 ８ー７",
    "tel": "090-5016-0707",
    "openingHours": "22時から翌4時",
    "tags": [
      "居酒屋",
      "泉州"
    ],
    "url": "https://goto-eat.weare.osaka-info.jp/gotoeat/gs366476/"
  },
  {
    "name": "尾はこ",
    "address": "596-0816\n岸和田市 尾生町5丁目10-71",
    "tel": "072-773-9762",
    "openingHours": "",
    "tags": [
      "寿司・魚料理",
      "泉州"
    ],
    "url": "https://goto-eat.weare.osaka-info.jp/gotoeat/gs365909/"
  },
  {
    "name": "一休　阪南店",
    "address": "599-0212\n阪南市 自然田389-1",
    "tel": "072-473-1519",
    "openingHours": "",
    "tags": [
      "居酒屋",
      "泉州"
    ],
    "url": "https://goto-eat.weare.osaka-info.jp/gotoeat/gs365906/"
  },
  {
    "name": "チンギス",
    "address": "598-0007\n泉佐野市 上町３ー１０ー５",
    "tel": "072-461-3733",
    "openingHours": "17時から23時半",
    "tags": [
      "焼肉・ホルモン",
      "泉州"
    ],
    "url": "https://goto-eat.weare.osaka-info.jp/gotoeat/gs365825/"
  },
  {
    "name": "焼肉 仁川",
    "address": "596-0808\n岸和田市 三田町793－１",
    "tel": "090-8122-2929",
    "openingHours": "17時～23時",
    "tags": [
      "焼肉・ホルモン",
      "泉州"
    ],
    "url": "https://goto-eat.weare.osaka-info.jp/gotoeat/gs365795/"
  },
  {
    "name": "CAFE HABU",
    "address": "596-0076\n岸和田市 野田町2-15-11",
    "tel": "072-432-1137",
    "openingHours": "AM11:00～PM14:00 PM17:00～PM21:30",
    "tags": [
      "居酒屋",
      "泉州"
    ],
    "url": "https://goto-eat.weare.osaka-info.jp/gotoeat/gs364543/"
  },
  {
    "name": "カロッセロ",
    "address": "590-0503\n泉南市 新家3379-144",
    "tel": "090-4716-7219",
    "openingHours": "7~19",
    "tags": [
      "カフェ・スイーツ",
      "泉州"
    ],
    "url": "https://goto-eat.weare.osaka-info.jp/gotoeat/gs364540/"
  },
  {
    "name": "和来",
    "address": "590-0521\n泉南市 樽井５丁目30-9",
    "tel": "072-483-5428",
    "openingHours": "16時～22時",
    "tags": [
      "居酒屋",
      "泉州"
    ],
    "url": "https://goto-eat.weare.osaka-info.jp/gotoeat/gs364466/"
  },
  {
    "name": "らーめんゴン太",
    "address": "598-0021\n泉佐野市 日根野6454-43",
    "tel": "072-463-2604",
    "openingHours": "",
    "tags": [
      "ラーメン・つけ麺",
      "泉州"
    ],
    "url": "https://goto-eat.weare.osaka-info.jp/gotoeat/gs275448/"
  },
  {
    "name": "ルーラル",
    "address": "596-0845\n岸和田市 阿間河滝町1643",
    "tel": "070-5044-1984",
    "openingHours": "9:30～14:30",
    "tags": [
      "カフェ・スイーツ",
      "泉州"
    ],
    "url": "https://goto-eat.weare.osaka-info.jp/gotoeat/gs364235/"
  },
  {
    "name": "旬彩たまき",
    "address": "597-0001\n貝塚市 近木町12-9",
    "tel": "072-433-0043",
    "openingHours": "17時半から24時",
    "tags": [
      "居酒屋",
      "泉州"
    ],
    "url": "https://goto-eat.weare.osaka-info.jp/gotoeat/gs364049/"
  },
  {
    "name": "岸和田・和泉 チイナ邸 窯焼きピザ＆生パスタ＆大衆イタリア料理のダイニングバー",
    "address": "596-0812\n岸和田市 大町１の１１の２５ ガーデンコートササキ１階",
    "tel": "072-447-8737",
    "openingHours": "【ランチ】11時30分～15時（LO14時）　 【ディナー】17時30分～22時(LO21時半)",
    "tags": [
      "イタリアン・フレンチ",
      "泉州"
    ],
    "url": "https://goto-eat.weare.osaka-info.jp/gotoeat/gs364023/"
  },
  {
    "name": "活魚ヒロ",
    "address": "596-0067\n岸和田市 南町31-8",
    "tel": "072-431-3149",
    "openingHours": "12時から23時",
    "tags": [
      "寿司・魚料理",
      "泉州"
    ],
    "url": "https://goto-eat.weare.osaka-info.jp/gotoeat/gs363461/"
  },
  {
    "name": "米粉パン＆創作ダイニング　KAN",
    "address": "596-0831\n岸和田市 畑町4丁目1－14",
    "tel": "072-488-7039",
    "openingHours": "11:00~22:00",
    "tags": [
      "洋食・西洋料理",
      "泉州"
    ],
    "url": "https://goto-eat.weare.osaka-info.jp/gotoeat/gs363213/"
  },
  {
    "name": "お好み焼　ゆっちゃん、",
    "address": "596-0067\n岸和田市 南町21-4",
    "tel": "072-433-3366",
    "openingHours": "11時～16時",
    "tags": [
      "お好み焼き・たこ焼き",
      "泉州"
    ],
    "url": "https://goto-eat.weare.osaka-info.jp/gotoeat/gs363207/"
  },
  {
    "name": "蓉堂　本格四川料理",
    "address": "596-0003\n岸和田市 中井町２丁目13-13",
    "tel": "090-6488-1166",
    "openingHours": "11時~22時",
    "tags": [
      "中華料理",
      "泉州"
    ],
    "url": "https://goto-eat.weare.osaka-info.jp/gotoeat/gs363194/"
  },
  {
    "name": "廻鮮鮨　喜十郎",
    "address": "590-0525\n泉南市 馬場2-284-1",
    "tel": "072-480-0510",
    "openingHours": "平日11時-14時30分 17時-22時　土日11時-22時",
    "tags": [
      "寿司・魚料理",
      "泉州"
    ],
    "url": "https://goto-eat.weare.osaka-info.jp/gotoeat/gs363141/"
  },
  {
    "name": "牛ハラミ亭",
    "address": "596-0825\n岸和田市 土生町3-3-8",
    "tel": "080-9472-2013",
    "openingHours": "",
    "tags": [
      "焼肉・ホルモン",
      "泉州"
    ],
    "url": "https://goto-eat.weare.osaka-info.jp/gotoeat/gs362993/"
  },
  {
    "name": "お食事処　朝日亭",
    "address": "599-0303\n泉南郡岬町 深日3494-5",
    "tel": "072-492-2218",
    "openingHours": "",
    "tags": [
      "和食",
      "泉州"
    ],
    "url": "https://goto-eat.weare.osaka-info.jp/gotoeat/gs362342/"
  },
  {
    "name": "French Bistro and A",
    "address": "598-0007\n泉佐野市 上町3-5-28 1階",
    "tel": "072-479-8928",
    "openingHours": "11:30～14:30／18:00～22:00",
    "tags": [
      "洋食・西洋料理",
      "泉州"
    ],
    "url": "https://goto-eat.weare.osaka-info.jp/gotoeat/gs362331/"
  },
  {
    "name": "中華食堂 笑楽",
    "address": "596-0005\n岸和田市 春木旭町19-2",
    "tel": "072-493-3520",
    "openingHours": "11:00~14:00 17:00~21:30",
    "tags": [
      "中華料理",
      "泉州"
    ],
    "url": "https://goto-eat.weare.osaka-info.jp/gotoeat/gs360579/"
  },
  {
    "name": "そば処 よしの",
    "address": "590-0402\n泉南郡熊取町 大久保北2-5-22",
    "tel": "072-452-1086",
    "openingHours": "",
    "tags": [
      "うどん・そば",
      "泉州"
    ],
    "url": "https://goto-eat.weare.osaka-info.jp/gotoeat/gs360289/"
  },
  {
    "name": "BIERBAUCH TETSU",
    "address": "596-0825\n岸和田市 土生町 4171 大橋管理ビル2F",
    "tel": "050-1243-6943",
    "openingHours": "15:00~24:00",
    "tags": [
      "居酒屋",
      "泉州"
    ],
    "url": "https://goto-eat.weare.osaka-info.jp/gotoeat/gs360279/"
  },
  {
    "name": "鷄と魚",
    "address": "598-0062\n泉佐野市 下瓦屋一丁目二番十号",
    "tel": "080-3139-7755",
    "openingHours": "午後4時から午後11時",
    "tags": [
      "居酒屋",
      "泉州"
    ],
    "url": "https://goto-eat.weare.osaka-info.jp/gotoeat/gs360278/"
  },
  {
    "name": "山形豚専門店んだんだ",
    "address": "598-0047\n泉佐野市 りんくう往来南3-27 りんくうプレジャータウンシークル2F",
    "tel": "072-479-4355",
    "openingHours": "11:00～22:00",
    "tags": [
      "和食",
      "泉州"
    ],
    "url": "https://goto-eat.weare.osaka-info.jp/gotoeat/gs358087/"
  },
  {
    "name": "いせや",
    "address": "596-0077\n岸和田市 上町24-19",
    "tel": "090-1151-4129",
    "openingHours": "11時-14時　　17時-22時",
    "tags": [
      "焼肉・ホルモン",
      "泉州"
    ],
    "url": "https://goto-eat.weare.osaka-info.jp/gotoeat/gs358044/"
  },
  {
    "name": "舌好鳥",
    "address": "596-0047\n岸和田市 上野町東 平松物産ビル1階",
    "tel": "072-442-6524",
    "openingHours": "火曜日～土曜日17:00～23:00 日曜日13:00～22:00",
    "tags": [
      "居酒屋",
      "泉州"
    ],
    "url": "https://goto-eat.weare.osaka-info.jp/gotoeat/gs358040/"
  },
  {
    "name": "ココイロカフェ岸和田店",
    "address": "596-0049\n岸和田市 八阪町2-10-6",
    "tel": "072-437-3944",
    "openingHours": "",
    "tags": [
      "カフェ・スイーツ",
      "泉州"
    ],
    "url": "https://goto-eat.weare.osaka-info.jp/gotoeat/gs212467/"
  },
  {
    "name": "海鮮焼処",
    "address": "598-0048\n泉佐野市 りんくう往来北6-1",
    "tel": "070-2303-3025",
    "openingHours": "",
    "tags": [
      "その他",
      "泉州"
    ],
    "url": "https://goto-eat.weare.osaka-info.jp/gotoeat/gs323725/"
  },
  {
    "name": "酒房たかだ　浜店",
    "address": "598-0044\n泉佐野市 笠松1-7-43",
    "tel": "072-457-5713",
    "openingHours": "",
    "tags": [
      "居酒屋",
      "泉州"
    ],
    "url": "https://goto-eat.weare.osaka-info.jp/gotoeat/gs318543/"
  },
  {
    "name": "HAYAMA邸",
    "address": "598-0048\n泉佐野市 りんくう往来北6-9",
    "tel": "072-479-8817",
    "openingHours": "",
    "tags": [
      "鍋",
      "泉州"
    ],
    "url": "https://goto-eat.weare.osaka-info.jp/gotoeat/gs315978/"
  },
  {
    "name": "小陽春 りんくうシークル店",
    "address": "598-0047\n泉佐野市 りんくう往来南3番地",
    "tel": "072-447-7017",
    "openingHours": "",
    "tags": [
      "中華料理",
      "泉州"
    ],
    "url": "https://goto-eat.weare.osaka-info.jp/gotoeat/gs311290/"
  },
  {
    "name": "贅沢食堂 時鮭 りんくうシークル店",
    "address": "598-0047\n泉佐野市 りんくう往来南3番地",
    "tel": "072-458-0148",
    "openingHours": "",
    "tags": [
      "居酒屋",
      "泉州"
    ],
    "url": "https://goto-eat.weare.osaka-info.jp/gotoeat/gs311289/"
  },
  {
    "name": "あて処 呑み処 呑",
    "address": "590-0403\n泉南郡熊取町 大久保中2-24-3",
    "tel": "070-2299-5888",
    "openingHours": "",
    "tags": [
      "居酒屋",
      "泉州"
    ],
    "url": "https://goto-eat.weare.osaka-info.jp/gotoeat/gs288119/"
  },
  {
    "name": "にぎわいや",
    "address": "596-0821\n岸和田市 小松里町2434 シャトレー小松里1階",
    "tel": "072-441-5439",
    "openingHours": "",
    "tags": [
      "居酒屋",
      "泉州"
    ],
    "url": "https://goto-eat.weare.osaka-info.jp/gotoeat/gs283611/"
  },
  {
    "name": "焼肉　ほうせん",
    "address": "596-0808\n岸和田市 三田町624-1",
    "tel": "0724-93-2773",
    "openingHours": "",
    "tags": [
      "焼肉・ホルモン",
      "泉州"
    ],
    "url": "https://goto-eat.weare.osaka-info.jp/gotoeat/gs280164/"
  },
  {
    "name": "山笑",
    "address": "598-0062\n泉佐野市 下瓦屋2丁目1-36 第一ミヤタビル101",
    "tel": "072-464-5425",
    "openingHours": "",
    "tags": [
      "寿司・魚料理",
      "泉州"
    ],
    "url": "https://goto-eat.weare.osaka-info.jp/gotoeat/gs277819/"
  },
  {
    "name": "居酒屋 のぶろう",
    "address": "590-0403\n泉南郡熊取町 大久保中1丁目1-22",
    "tel": "072-451-2708",
    "openingHours": "",
    "tags": [
      "居酒屋",
      "泉州"
    ],
    "url": "https://goto-eat.weare.osaka-info.jp/gotoeat/gs277065/"
  },
  {
    "name": "おかん（浜ちゃん）",
    "address": "596-0076\n岸和田市 野田町1丁目14-28",
    "tel": "072-431-0598",
    "openingHours": "",
    "tags": [
      "居酒屋",
      "泉州"
    ],
    "url": "https://goto-eat.weare.osaka-info.jp/gotoeat/gs274957/"
  },
  {
    "name": "焼肉　夢",
    "address": "598-0062\n泉佐野市 下瓦屋2-1-36 ミヤタビル１F",
    "tel": "072-461-4455",
    "openingHours": "",
    "tags": [
      "焼肉・ホルモン",
      "泉州"
    ],
    "url": "https://goto-eat.weare.osaka-info.jp/gotoeat/gs274935/"
  },
  {
    "name": "えぼし",
    "address": "598-0045\n泉佐野市 松原2-3-4",
    "tel": "072-462-5534",
    "openingHours": "",
    "tags": [
      "居酒屋",
      "泉州"
    ],
    "url": "https://goto-eat.weare.osaka-info.jp/gotoeat/gs274923/"
  },
  {
    "name": "ごちそう居酒屋 夢",
    "address": "598-0044\n泉佐野市 笠松2丁目1-1",
    "tel": "072-464-0112",
    "openingHours": "",
    "tags": [
      "居酒屋",
      "泉州"
    ],
    "url": "https://goto-eat.weare.osaka-info.jp/gotoeat/gs273265/"
  },
  {
    "name": "洋食屋　桜亭",
    "address": "596-0821\n岸和田市 小松里町2188-１F",
    "tel": "072-441-0909",
    "openingHours": "",
    "tags": [
      "洋食・西洋料理",
      "泉州"
    ],
    "url": "https://goto-eat.weare.osaka-info.jp/gotoeat/gs220174/"
  },
  {
    "name": "Bar Vioret(ヴィオレ）",
    "address": "598-0007\n泉佐野市 上町3-6-20 オーツカヤ第1ビル1F",
    "tel": "072-457-1355",
    "openingHours": "",
    "tags": [
      "その他",
      "泉州"
    ],
    "url": "https://goto-eat.weare.osaka-info.jp/gotoeat/gs219746/"
  },
  {
    "name": "みそ焼き　鶏坊　南海泉佐野駅ビル店",
    "address": "598-0007\n泉佐野市 上町3-11-25 南海泉佐野駅ビル１F",
    "tel": "072-462-5533",
    "openingHours": "",
    "tags": [
      "居酒屋",
      "泉州"
    ],
    "url": "https://goto-eat.weare.osaka-info.jp/gotoeat/gs219745/"
  },
  {
    "name": "みそ焼き　鶏坊　本店",
    "address": "598-0062\n泉佐野市 下瓦屋2-2-77 いこらもーる泉佐野1階",
    "tel": "072-469-1005",
    "openingHours": "",
    "tags": [
      "焼肉・ホルモン",
      "泉州"
    ],
    "url": "https://goto-eat.weare.osaka-info.jp/gotoeat/gs219744/"
  },
  {
    "name": "ジョイフル貝塚半田店",
    "address": "597-0033\n貝塚市 半田549",
    "tel": "072-420-5810",
    "openingHours": "",
    "tags": [
      "その他",
      "泉州"
    ],
    "url": "https://goto-eat.weare.osaka-info.jp/gotoeat/gs215947/"
  },
  {
    "name": "ジョイフルりんくうタウン店",
    "address": "598-0048\n泉佐野市 りんくう往来北1-10",
    "tel": "072-458-3550",
    "openingHours": "",
    "tags": [
      "その他",
      "泉州"
    ],
    "url": "https://goto-eat.weare.osaka-info.jp/gotoeat/gs215945/"
  },
  {
    "name": "やよい軒いこらもーる泉佐野店",
    "address": "598-0062\n泉佐野市 下瓦屋02-2-77",
    "tel": "072-458-6537",
    "openingHours": "",
    "tags": [
      "その他",
      "泉州"
    ],
    "url": "https://goto-eat.weare.osaka-info.jp/gotoeat/gs215868/"
  },
  {
    "name": "香の川製麺　貝塚店",
    "address": "597-0082\n貝塚市 石才230-1-1",
    "tel": "072-432-1303",
    "openingHours": "",
    "tags": [
      "うどん・そば",
      "泉州"
    ],
    "url": "https://goto-eat.weare.osaka-info.jp/gotoeat/gs215678/"
  },
  {
    "name": "坂井珈琲　泉佐野店",
    "address": "598-0062\n泉佐野市 下瓦屋2-2-77 いこらも～る泉佐野",
    "tel": "072-458-1808",
    "openingHours": "10：00～21：00",
    "tags": [
      "カフェ・スイーツ",
      "泉州"
    ],
    "url": "https://goto-eat.weare.osaka-info.jp/gotoeat/gs212451/"
  },
  {
    "name": "餃子の王将 阪南箱作店",
    "address": "599-0232\n阪南市 箱作3520-1",
    "tel": "072-476-5075",
    "openingHours": "11:00～22:30（ラストオーダー22:00）",
    "tags": [
      "中華料理",
      "泉州"
    ],
    "url": "https://goto-eat.weare.osaka-info.jp/gotoeat/gs211342/"
  },
  {
    "name": "餃子の王将 国道泉佐野店",
    "address": "598-0071\n泉佐野市 鶴原1857-5",
    "tel": "072-469-6980",
    "openingHours": "月／11:00～22:30（ラストオーダー22:00）",
    "tags": [
      "中華料理",
      "泉州"
    ],
    "url": "https://goto-eat.weare.osaka-info.jp/gotoeat/gs211300/"
  },
  {
    "name": "餃子の王将 岸和田南店",
    "address": "596-0823\n岸和田市 下松町1-5-1",
    "tel": "072-437-5563",
    "openingHours": "月～土／11:00～深夜0:00（ラストオーダー23:30）",
    "tags": [
      "中華料理",
      "泉州"
    ],
    "url": "https://goto-eat.weare.osaka-info.jp/gotoeat/gs211299/"
  },
  {
    "name": "餃子の王将 泉南熊取店",
    "address": "590-0412\n泉南郡熊取町 紺屋2-3-16",
    "tel": "072-452-3988",
    "openingHours": "月～土／11:00～23:30（ラストオーダー23:00）",
    "tags": [
      "中華料理",
      "泉州"
    ],
    "url": "https://goto-eat.weare.osaka-info.jp/gotoeat/gs211283/"
  },
  {
    "name": "餃子の王将 国道岸和田店",
    "address": "596-0811\n岸和田市 下池田町1-2-10",
    "tel": "072-444-9033",
    "openingHours": "11:00～23:30（ラストオーダー23:00)",
    "tags": [
      "中華料理",
      "泉州"
    ],
    "url": "https://goto-eat.weare.osaka-info.jp/gotoeat/gs211271/"
  },
  {
    "name": "そば心",
    "address": "598-0003\n泉佐野市 俵屋342-2",
    "tel": "072-486-8111",
    "openingHours": "",
    "tags": [
      "うどん・そば",
      "泉州"
    ],
    "url": "https://goto-eat.weare.osaka-info.jp/gotoeat/gs210750/"
  },
  {
    "name": "遊裕日和",
    "address": "597-0043\n貝塚市 橋本226-3",
    "tel": "072-479-8988",
    "openingHours": "17:00~23:00",
    "tags": [
      "居酒屋",
      "泉州"
    ],
    "url": "https://goto-eat.weare.osaka-info.jp/gotoeat/gs210494/"
  },
  {
    "name": "WARAIYA 泉南ロングパーク店",
    "address": "590-0535\n泉南市 りんくう南浜2-1 泉南ロングパーク4棟",
    "tel": "072-468-9996",
    "openingHours": "11時～21時",
    "tags": [
      "アジア・エスニック料理",
      "泉州"
    ],
    "url": "https://goto-eat.weare.osaka-info.jp/gotoeat/gs210403/"
  },
  {
    "name": "居酒屋　富士見屋",
    "address": "597-0001\n貝塚市 近木町8-27",
    "tel": "072-425-8128",
    "openingHours": "17時から23時",
    "tags": [
      "居酒屋",
      "泉州"
    ],
    "url": "https://goto-eat.weare.osaka-info.jp/gotoeat/gs210335/"
  },
  {
    "name": "気心",
    "address": "596-0053\n岸和田市 沼町33-32",
    "tel": "072-432-3824",
    "openingHours": "",
    "tags": [
      "居酒屋",
      "泉州"
    ],
    "url": "https://goto-eat.weare.osaka-info.jp/gotoeat/gs210245/"
  },
  {
    "name": "小料理　蝶",
    "address": "597-0001\n貝塚市 近木町12-16",
    "tel": "072-433-2074",
    "openingHours": "",
    "tags": [
      "居酒屋",
      "泉州"
    ],
    "url": "https://goto-eat.weare.osaka-info.jp/gotoeat/gs210241/"
  },
  {
    "name": "レストランフランス亭",
    "address": "596-0825\n岸和田市 土生町2丁目30-12-101",
    "tel": "072-437-2612",
    "openingHours": "",
    "tags": [
      "洋食・西洋料理",
      "泉州"
    ],
    "url": "https://goto-eat.weare.osaka-info.jp/gotoeat/gs210234/"
  },
  {
    "name": "焼肉とっちゃん　岸和田本店",
    "address": "596-0823\n岸和田市 下松町1-8-45",
    "tel": "072-436-2030",
    "openingHours": "",
    "tags": [
      "焼肉・ホルモン",
      "泉州"
    ],
    "url": "https://goto-eat.weare.osaka-info.jp/gotoeat/gs210212/"
  },
  {
    "name": "焼肉　扇",
    "address": "596-0045\n岸和田市 別所町2丁目20-9　1F",
    "tel": "0724-22-8878",
    "openingHours": "",
    "tags": [
      "焼肉・ホルモン",
      "泉州"
    ],
    "url": "https://goto-eat.weare.osaka-info.jp/gotoeat/gs205078/"
  },
  {
    "name": "八剣伝熊取駅前店",
    "address": "590-0403\n泉南郡熊取町 大久保中1-10-40",
    "tel": "072-452-7868",
    "openingHours": "",
    "tags": [
      "居酒屋",
      "泉州"
    ],
    "url": "https://goto-eat.weare.osaka-info.jp/gotoeat/gs204961/"
  },
  {
    "name": "自家製うどん　天羽",
    "address": "598-0005\n泉佐野市 市場東2丁目298-2",
    "tel": "072-442-7501",
    "openingHours": "11：00～14：30",
    "tags": [
      "うどん・そば",
      "泉州"
    ],
    "url": "https://goto-eat.weare.osaka-info.jp/gotoeat/gs204775/"
  },
  {
    "name": "Factory1-＋",
    "address": "599-0203\n阪南市 黒田52-6",
    "tel": "072-472-6543",
    "openingHours": "19:30～24:00",
    "tags": [
      "その他",
      "泉州"
    ],
    "url": "https://goto-eat.weare.osaka-info.jp/gotoeat/gs204765/"
  },
  {
    "name": "エアポートヒルカントリークラブハウス",
    "address": "597-0102\n貝塚市 木積24",
    "tel": "072-446-6000",
    "openingHours": "",
    "tags": [
      "ホテルレストラン",
      "泉州"
    ],
    "url": "https://goto-eat.weare.osaka-info.jp/gotoeat/gs204751/"
  },
  {
    "name": "アスレチックスポーツ",
    "address": "597-0102\n貝塚市 木積24",
    "tel": "072-446-1133",
    "openingHours": "",
    "tags": [
      "焼肉・ホルモン",
      "泉州"
    ],
    "url": "https://goto-eat.weare.osaka-info.jp/gotoeat/gs204750/"
  },
  {
    "name": "炭火焼鳥　おしどり",
    "address": "597-0071\n貝塚市 加神1-10-1 炭火焼鳥　おしどり",
    "tel": "072-477-5818",
    "openingHours": "17時30分～23時30分",
    "tags": [
      "居酒屋",
      "泉州"
    ],
    "url": "https://goto-eat.weare.osaka-info.jp/gotoeat/gs204679/"
  },
  {
    "name": "元気家",
    "address": "599-0201\n阪南市 尾崎町80-1 岡野ビル",
    "tel": "072-471-5152",
    "openingHours": "17時30分から11時",
    "tags": [
      "居酒屋",
      "泉州"
    ],
    "url": "https://goto-eat.weare.osaka-info.jp/gotoeat/gs204663/"
  },
  {
    "name": "ガレットカフェオノーレ",
    "address": "596-0048\n岸和田市 上野町西15-23",
    "tel": "080-4487-0819",
    "openingHours": "",
    "tags": [
      "カフェ・スイーツ",
      "泉州"
    ],
    "url": "https://goto-eat.weare.osaka-info.jp/gotoeat/gs204647/"
  },
  {
    "name": "大和食堂",
    "address": "598-0001\n泉佐野市 上瓦屋２０１－１",
    "tel": "072-463-8788",
    "openingHours": "11：30～1：00(14：00～17：30を除く)",
    "tags": [
      "うどん・そば",
      "泉州"
    ],
    "url": "https://goto-eat.weare.osaka-info.jp/gotoeat/gs204645/"
  },
  {
    "name": "てっぱんSesame",
    "address": "596-0823\n岸和田市 下松町1462 てっぱんSesame",
    "tel": "072-441-6667",
    "openingHours": "11:30~14:00 17:30~22:30",
    "tags": [
      "お好み焼き・たこ焼き",
      "泉州"
    ],
    "url": "https://goto-eat.weare.osaka-info.jp/gotoeat/gs204644/"
  },
  {
    "name": "ナチュラルダイニング風",
    "address": "598-0007\n泉佐野市 上町3-9-30",
    "tel": "072-457-5562",
    "openingHours": "",
    "tags": [
      "居酒屋",
      "泉州"
    ],
    "url": "https://goto-eat.weare.osaka-info.jp/gotoeat/gs204642/"
  },
  {
    "name": "中華そば　大元",
    "address": "590-0533\n泉南市 中小路二丁目1755-1",
    "tel": "072-483-8778",
    "openingHours": "昼11時30分から15時迄　夜17時30分から21時30分迄",
    "tags": [
      "ラーメン・つけ麺",
      "泉州"
    ],
    "url": "https://goto-eat.weare.osaka-info.jp/gotoeat/gs204162/"
  },
  {
    "name": "立ち呑みアントニオ",
    "address": "550-0001\n貝塚市 近木町12-10",
    "tel": "072-468-9296",
    "openingHours": "",
    "tags": [
      "居酒屋",
      "泉州"
    ],
    "url": "https://goto-eat.weare.osaka-info.jp/gotoeat/gs204149/"
  },
  {
    "name": "ぴよちゃん",
    "address": "597-0042\n貝塚市 名越651番地",
    "tel": "072-457-7890",
    "openingHours": "",
    "tags": [
      "カフェ・スイーツ",
      "泉州"
    ],
    "url": "https://goto-eat.weare.osaka-info.jp/gotoeat/gs204018/"
  },
  {
    "name": "中国料理　鮮味館",
    "address": "598-0045\n泉佐野市 松原2丁目5-60",
    "tel": "072-461-4554",
    "openingHours": "",
    "tags": [
      "中華料理",
      "泉州"
    ],
    "url": "https://goto-eat.weare.osaka-info.jp/gotoeat/gs204001/"
  },
  {
    "name": "Bar Spinna バースピナ",
    "address": "596-0053\n岸和田市 沼町30-35",
    "tel": "072-457-5943",
    "openingHours": "11時～14時、20時～2時",
    "tags": [
      "カレー",
      "泉州"
    ],
    "url": "https://goto-eat.weare.osaka-info.jp/gotoeat/gs203991/"
  },
  {
    "name": "割烹・仕出し　むかい",
    "address": "597-0083\n貝塚市 海塚3-8-2",
    "tel": "072-423-2759",
    "openingHours": "",
    "tags": [
      "和食",
      "泉州"
    ],
    "url": "https://goto-eat.weare.osaka-info.jp/gotoeat/gs203980/"
  },
  {
    "name": "旬彩食堂三粒に種",
    "address": "596-0102\n岸和田市 山直中町511‐1",
    "tel": "072-425-2984",
    "openingHours": "11：00～15：00　18：00～23：00",
    "tags": [
      "和食",
      "泉州"
    ],
    "url": "https://goto-eat.weare.osaka-info.jp/gotoeat/gs203803/"
  },
  {
    "name": "猿とモルターレ",
    "address": "596-0102\n岸和田市 山直中町577－1",
    "tel": "072-424-3231",
    "openingHours": "9：00～17：00",
    "tags": [
      "カフェ・スイーツ",
      "泉州"
    ],
    "url": "https://goto-eat.weare.osaka-info.jp/gotoeat/gs203802/"
  },
  {
    "name": "まるや食堂",
    "address": "598-0041\n泉佐野市 野出町4-19",
    "tel": "072-461-3400",
    "openingHours": "11：00-14：00【金、土のみ11：00-14：00、18：00-21：00】",
    "tags": [
      "うどん・そば",
      "泉州"
    ],
    "url": "https://goto-eat.weare.osaka-info.jp/gotoeat/gs203705/"
  },
  {
    "name": "ムーンストーン",
    "address": "596-0825\n岸和田市 土生町3丁目15-25",
    "tel": "072-433-3377",
    "openingHours": "",
    "tags": [
      "その他",
      "泉州"
    ],
    "url": "https://goto-eat.weare.osaka-info.jp/gotoeat/gs203534/"
  },
  {
    "name": "バー・アンバー",
    "address": "597-0001\n貝塚市 近木町4-19",
    "tel": "072-423-3373",
    "openingHours": "",
    "tags": [
      "その他",
      "泉州"
    ],
    "url": "https://goto-eat.weare.osaka-info.jp/gotoeat/gs203533/"
  },
  {
    "name": "とんかつ、琉球美豚",
    "address": "596-0825\n岸和田市 土生町3-2-16",
    "tel": "072-447-4159",
    "openingHours": "11:00～14:00 18:00～24:00",
    "tags": [
      "和食",
      "泉州"
    ],
    "url": "https://goto-eat.weare.osaka-info.jp/gotoeat/gs203397/"
  },
  {
    "name": "長谷川飯店",
    "address": "597-0062\n貝塚市 澤1046-1",
    "tel": "072-431-2789",
    "openingHours": "11:00-14:30 17:30-20:30",
    "tags": [
      "中華料理",
      "泉州"
    ],
    "url": "https://goto-eat.weare.osaka-info.jp/gotoeat/gs203387/"
  },
  {
    "name": "焼肉膳",
    "address": "596-0808\n岸和田市 三田町802-1",
    "tel": "072-443-1188",
    "openingHours": "5時から12時",
    "tags": [
      "焼肉・ホルモン",
      "泉州"
    ],
    "url": "https://goto-eat.weare.osaka-info.jp/gotoeat/gs203088/"
  },
  {
    "name": "ナマステスーリャ　NAMASTE SURYA　（す～さんのインド料理）",
    "address": "598-0046\n泉佐野市 羽倉崎2-1-18",
    "tel": "072-465-1920",
    "openingHours": "11:00～15:00.17:00～23:00",
    "tags": [
      "カレー",
      "泉州"
    ],
    "url": "https://goto-eat.weare.osaka-info.jp/gotoeat/gs203087/"
  },
  {
    "name": "ふみや",
    "address": "597-0102\n貝塚市 木積483",
    "tel": "072-446-1963",
    "openingHours": "",
    "tags": [
      "その他",
      "泉州"
    ],
    "url": "https://goto-eat.weare.osaka-info.jp/gotoeat/gs203038/"
  },
  {
    "name": "本格中国料理郷菜館",
    "address": "597-0051\n貝塚市 王子365-1",
    "tel": "072-493-2194",
    "openingHours": "",
    "tags": [
      "中華料理",
      "泉州"
    ],
    "url": "https://goto-eat.weare.osaka-info.jp/gotoeat/gs203036/"
  },
  {
    "name": "旬鮮ごはん屋 かも葱岸和田",
    "address": "596-0835\n岸和田市 流木町 70-6",
    "tel": "072-493-7509",
    "openingHours": "",
    "tags": [
      "居酒屋",
      "泉州"
    ],
    "url": "https://goto-eat.weare.osaka-info.jp/gotoeat/gs203035/"
  },
  {
    "name": "お好み焼き家 凛",
    "address": "597-0071\n貝塚市 加神1-7-1",
    "tel": "072-432-7725",
    "openingHours": "",
    "tags": [
      "お好み焼き・たこ焼き",
      "泉州"
    ],
    "url": "https://goto-eat.weare.osaka-info.jp/gotoeat/gs203032/"
  },
  {
    "name": "お好み焼き　萩",
    "address": "597-0022\n貝塚市 新井83",
    "tel": "072-422-3134",
    "openingHours": "",
    "tags": [
      "お好み焼き・たこ焼き",
      "泉州"
    ],
    "url": "https://goto-eat.weare.osaka-info.jp/gotoeat/gs202858/"
  },
  {
    "name": "ラーメンむさし貝塚店",
    "address": "597-0062\n貝塚市 澤176-1",
    "tel": "072-430-0634",
    "openingHours": "11時から24時",
    "tags": [
      "ラーメン・つけ麺",
      "泉州"
    ],
    "url": "https://goto-eat.weare.osaka-info.jp/gotoeat/gs202718/"
  },
  {
    "name": "ALL GOOD BURGER",
    "address": "590-0535\n泉南市 りんくう南浜3-201",
    "tel": "072-493-6076",
    "openingHours": "11時ー21時",
    "tags": [
      "その他",
      "泉州"
    ],
    "url": "https://goto-eat.weare.osaka-info.jp/gotoeat/gs202406/"
  },
  {
    "name": "中国四川家庭料理　蘭梅",
    "address": "598-0007\n泉佐野市 上町１丁目８ー２６",
    "tel": "072-463-1658",
    "openingHours": "",
    "tags": [
      "中華料理",
      "泉州"
    ],
    "url": "https://goto-eat.weare.osaka-info.jp/gotoeat/gs202391/"
  },
  {
    "name": "ワインバーTeRRa",
    "address": "598-0007\n泉佐野市 上町3-5-25",
    "tel": "072-458-7550",
    "openingHours": "",
    "tags": [
      "イタリアン・フレンチ",
      "泉州"
    ],
    "url": "https://goto-eat.weare.osaka-info.jp/gotoeat/gs202327/"
  },
  {
    "name": "かぶら",
    "address": "599-0212\n阪南市 自然田778-1",
    "tel": "072-473-3666",
    "openingHours": "11時-14時 17時-21時",
    "tags": [
      "和食",
      "泉州"
    ],
    "url": "https://goto-eat.weare.osaka-info.jp/gotoeat/gs202297/"
  },
  {
    "name": "馬肉厨房　UMA UMA",
    "address": "597-0062\n貝塚市 澤569-3",
    "tel": "072-437-8298",
    "openingHours": "12～14 18～24時",
    "tags": [
      "居酒屋",
      "泉州"
    ],
    "url": "https://goto-eat.weare.osaka-info.jp/gotoeat/gs202085/"
  },
  {
    "name": "サンマルクカフェ 岸和田カンカンベイサイドモール店",
    "address": "596-0014\n岸和田市 港緑町2-1",
    "tel": "072-439-2309",
    "openingHours": "10:00 ～ 20:00",
    "tags": [
      "カフェ・スイーツ",
      "泉州"
    ],
    "url": "https://goto-eat.weare.osaka-info.jp/gotoeat/gs201828/"
  },
  {
    "name": "サンマルクカフェ 関西国際空港店",
    "address": "549-0011\n泉南郡田尻町 泉州空港中1 旅客ターミナルビル3F",
    "tel": "072-456-6476",
    "openingHours": "10:00 ～ 16:00",
    "tags": [
      "カフェ・スイーツ",
      "泉州"
    ],
    "url": "https://goto-eat.weare.osaka-info.jp/gotoeat/gs201826/"
  },
  {
    "name": "ネコリパブリック大阪熊取町店",
    "address": "590-0451\n泉南郡熊取町 野田3-2297-1",
    "tel": "072-468-8336",
    "openingHours": "11:30～18:00",
    "tags": [
      "カフェ・スイーツ",
      "泉州"
    ],
    "url": "https://goto-eat.weare.osaka-info.jp/gotoeat/gs201363/"
  },
  {
    "name": "ちゃんこ鍋かじの",
    "address": "596-0051\n岸和田市 岸野町9-10",
    "tel": "072-423-4262",
    "openingHours": "11時～14時　１７時~22時",
    "tags": [
      "鍋",
      "泉州"
    ],
    "url": "https://goto-eat.weare.osaka-info.jp/gotoeat/gs201311/"
  },
  {
    "name": "kichi kichi",
    "address": "598-0007\n泉佐野市 上町2-7-1",
    "tel": "072-462-9191",
    "openingHours": "11:30～14:30 18:00～22:00",
    "tags": [
      "イタリアン・フレンチ",
      "泉州"
    ],
    "url": "https://goto-eat.weare.osaka-info.jp/gotoeat/gs201302/"
  },
  {
    "name": "そば善",
    "address": "590-0525\n泉南市 馬場2-13-31",
    "tel": "072-480-1180",
    "openingHours": "11時30分~14時30分",
    "tags": [
      "うどん・そば",
      "泉州"
    ],
    "url": "https://goto-eat.weare.osaka-info.jp/gotoeat/gs201300/"
  },
  {
    "name": "季乃陣",
    "address": "596-0073\n岸和田市 岸城町5-7",
    "tel": "072-439-5151",
    "openingHours": "AM11：30より　予約終了まで",
    "tags": [
      "和食",
      "泉州"
    ],
    "url": "https://goto-eat.weare.osaka-info.jp/gotoeat/gs201207/"
  },
  {
    "name": "Dash賑",
    "address": "596-0054\n岸和田市 宮本町2-9",
    "tel": "072-477-4563",
    "openingHours": "",
    "tags": [
      "居酒屋",
      "泉州"
    ],
    "url": "https://goto-eat.weare.osaka-info.jp/gotoeat/gs201006/"
  },
  {
    "name": "ビストロパスカル",
    "address": "596-0054\n岸和田市 宮本町17-2",
    "tel": "072-477-7363",
    "openingHours": "",
    "tags": [
      "イタリアン・フレンチ",
      "泉州"
    ],
    "url": "https://goto-eat.weare.osaka-info.jp/gotoeat/gs201005/"
  },
  {
    "name": "食堂 あらまつ",
    "address": "590-0454\n泉南郡熊取町 新野田２丁目１１－７",
    "tel": "070-4307-9095",
    "openingHours": "昼11:30~14:30　夜17:30~19:30入店まで",
    "tags": [
      "和食",
      "泉州"
    ],
    "url": "https://goto-eat.weare.osaka-info.jp/gotoeat/gs200986/"
  },
  {
    "name": "料理屋ゆう香",
    "address": "596-0054\n岸和田市 宮本町11-2",
    "tel": "0724-93-8072",
    "openingHours": "",
    "tags": [
      "和食",
      "泉州"
    ],
    "url": "https://goto-eat.weare.osaka-info.jp/gotoeat/gs200958/"
  },
  {
    "name": "ベビーフェイス泉佐野店",
    "address": "598-0001\n泉佐野市 上瓦屋１４８－１ ベビーフェイス泉佐野店",
    "tel": "072-462-3978",
    "openingHours": "7時～22時",
    "tags": [
      "洋食・西洋料理",
      "泉州"
    ],
    "url": "https://goto-eat.weare.osaka-info.jp/gotoeat/gs200918/"
  },
  {
    "name": "八剣伝泉佐野店",
    "address": "598-0007\n泉佐野市 上町3-6-8",
    "tel": "072-469-2670",
    "openingHours": "17時から24時",
    "tags": [
      "居酒屋",
      "泉州"
    ],
    "url": "https://goto-eat.weare.osaka-info.jp/gotoeat/gs200419/"
  },
  {
    "name": "喫茶　祥雲",
    "address": "590-0522\n泉南市 信達牧野927-8",
    "tel": "072-485-0017",
    "openingHours": "7:00～17:00",
    "tags": [
      "カフェ・スイーツ",
      "泉州"
    ],
    "url": "https://goto-eat.weare.osaka-info.jp/gotoeat/gs199968/"
  },
  {
    "name": "居酒屋だんない亭",
    "address": "596-0054\n岸和田市 宮本町13-12",
    "tel": "072-437-2534",
    "openingHours": "",
    "tags": [
      "居酒屋",
      "泉州"
    ],
    "url": "https://goto-eat.weare.osaka-info.jp/gotoeat/gs199953/"
  },
  {
    "name": "はなれ",
    "address": "597-0033\n貝塚市 半田505",
    "tel": "072-428-7018",
    "openingHours": "",
    "tags": [
      "居酒屋",
      "泉州"
    ],
    "url": "https://goto-eat.weare.osaka-info.jp/gotoeat/gs199923/"
  },
  {
    "name": "焼肉月の小路",
    "address": "596-0004\n岸和田市 荒木町2-21-53",
    "tel": "072-443-3321",
    "openingHours": "16:00",
    "tags": [
      "焼肉・ホルモン",
      "泉州"
    ],
    "url": "https://goto-eat.weare.osaka-info.jp/gotoeat/gs199892/"
  },
  {
    "name": "お食事処なご美",
    "address": "597-0082\n貝塚市 石才65-3",
    "tel": "090-7096-6714",
    "openingHours": "",
    "tags": [
      "居酒屋",
      "泉州"
    ],
    "url": "https://goto-eat.weare.osaka-info.jp/gotoeat/gs199888/"
  },
  {
    "name": "やざき寿し幸吉",
    "address": "596-0054\n岸和田市 宮本町40-4",
    "tel": "072-433-3177",
    "openingHours": "",
    "tags": [
      "寿司・魚料理",
      "泉州"
    ],
    "url": "https://goto-eat.weare.osaka-info.jp/gotoeat/gs199886/"
  },
  {
    "name": "呑んべ",
    "address": "597-0054\n貝塚市 堤156",
    "tel": "072-432-0425",
    "openingHours": "",
    "tags": [
      "居酒屋",
      "泉州"
    ],
    "url": "https://goto-eat.weare.osaka-info.jp/gotoeat/gs199851/"
  },
  {
    "name": "アリラン亭",
    "address": "596-0056\n岸和田市 五軒屋町11-8",
    "tel": "072-433-2983",
    "openingHours": "17時～24時",
    "tags": [
      "焼肉・ホルモン",
      "泉州"
    ],
    "url": "https://goto-eat.weare.osaka-info.jp/gotoeat/gs199801/"
  },
  {
    "name": "鉄板焼かってもん",
    "address": "597-0054\n貝塚市 堤216番地",
    "tel": "080-3807-3768",
    "openingHours": "11:30～21:00",
    "tags": [
      "お好み焼き・たこ焼き",
      "泉州"
    ],
    "url": "https://goto-eat.weare.osaka-info.jp/gotoeat/gs199616/"
  },
  {
    "name": "木挽商店",
    "address": "597-0083\n貝塚市 海塚1丁目5-4",
    "tel": "072-422-0076",
    "openingHours": "",
    "tags": [
      "その他",
      "泉州"
    ],
    "url": "https://goto-eat.weare.osaka-info.jp/gotoeat/gs199395/"
  },
  {
    "name": "焼肉居酒屋 三徳",
    "address": "596-0825\n岸和田市 土生町2-25-3",
    "tel": "072-431-3109",
    "openingHours": "",
    "tags": [
      "焼肉・ホルモン",
      "泉州"
    ],
    "url": "https://goto-eat.weare.osaka-info.jp/gotoeat/gs199390/"
  },
  {
    "name": "焼肉よっちゃん",
    "address": "597-0001\n貝塚市 近木町6-6",
    "tel": "072-430-0051",
    "openingHours": "",
    "tags": [
      "焼肉・ホルモン",
      "泉州"
    ],
    "url": "https://goto-eat.weare.osaka-info.jp/gotoeat/gs199376/"
  },
  {
    "name": "花うち田",
    "address": "596-0006\n岸和田市 春木若松町5-9",
    "tel": "072-423-5538",
    "openingHours": "",
    "tags": [
      "和食",
      "泉州"
    ],
    "url": "https://goto-eat.weare.osaka-info.jp/gotoeat/gs198463/"
  },
  {
    "name": "おちゃわん",
    "address": "598-0037\n泉佐野市 羽倉崎上町1ー4ー28",
    "tel": "072-415-0002",
    "openingHours": "",
    "tags": [
      "居酒屋",
      "泉州"
    ],
    "url": "https://goto-eat.weare.osaka-info.jp/gotoeat/gs198461/"
  },
  {
    "name": "旬魚菜・なべ　きん魚",
    "address": "596-0054\n岸和田市 宮本町5-1",
    "tel": "072-457-4492",
    "openingHours": "17：00～24：00（l.o 22：30）",
    "tags": [
      "居酒屋",
      "泉州"
    ],
    "url": "https://goto-eat.weare.osaka-info.jp/gotoeat/gs197335/"
  },
  {
    "name": "はま寿司泉佐野鶴原店",
    "address": "598-0071\n泉佐野市 鶴原1276-4",
    "tel": "072-458-2807",
    "openingHours": "11:00～23：00",
    "tags": [
      "寿司・魚料理",
      "泉州"
    ],
    "url": "https://goto-eat.weare.osaka-info.jp/gotoeat/gs197248/"
  },
  {
    "name": "はま寿司岸和田八阪店",
    "address": "596-0049\n岸和田市 八阪町一丁目9番19号",
    "tel": "072-430-3770",
    "openingHours": "11:00～23：00",
    "tags": [
      "寿司・魚料理",
      "泉州"
    ],
    "url": "https://goto-eat.weare.osaka-info.jp/gotoeat/gs197237/"
  },
  {
    "name": "焼肉ふじ",
    "address": "597-0043\n貝塚市 橋本54 岸本ビル1F",
    "tel": "090-8536-6493",
    "openingHours": "",
    "tags": [
      "焼肉・ホルモン",
      "泉州"
    ],
    "url": "https://goto-eat.weare.osaka-info.jp/gotoeat/gs197099/"
  },
  {
    "name": "ケンタッキーフライドチキンR26岸和田店",
    "address": "596-0049\n岸和田市 八阪町1-10-47",
    "tel": "072-437-3636",
    "openingHours": "10：00～22：30",
    "tags": [
      "その他",
      "泉州"
    ],
    "url": "https://goto-eat.weare.osaka-info.jp/gotoeat/gs196914/"
  },
  {
    "name": "チャルテチャルテ",
    "address": "598-0021\n泉佐野市 日根野2496-1 イオンモール日根野",
    "tel": "072-442-6393",
    "openingHours": "10：00～21：00",
    "tags": [
      "カレー",
      "泉州"
    ],
    "url": "https://goto-eat.weare.osaka-info.jp/gotoeat/gs308537/"
  },
  {
    "name": "花満円",
    "address": "598-0021\n泉佐野市 日根野2496-1 イオンモール日根野",
    "tel": "072-468-0677",
    "openingHours": "10：00～21：00",
    "tags": [
      "和食",
      "泉州"
    ],
    "url": "https://goto-eat.weare.osaka-info.jp/gotoeat/gs196826/"
  },
  {
    "name": "大阪うどんきらく",
    "address": "598-0021\n泉佐野市 日根野2496-1 イオンモール日根野",
    "tel": "072-468-2244",
    "openingHours": "11：00～21：00",
    "tags": [
      "うどん・そば",
      "泉州"
    ],
    "url": "https://goto-eat.weare.osaka-info.jp/gotoeat/gs196825/"
  },
  {
    "name": "サイゼリヤ",
    "address": "598-0021\n泉佐野市 日根野2496-1 イオンモール日根野",
    "tel": "072-468-1215",
    "openingHours": "10：00～22：00",
    "tags": [
      "洋食・西洋料理",
      "泉州"
    ],
    "url": "https://goto-eat.weare.osaka-info.jp/gotoeat/gs196824/"
  },
  {
    "name": "笑福亭",
    "address": "598-0021\n泉佐野市 日根野2496-1 イオンモール日根野",
    "tel": "072-468-1396",
    "openingHours": "11：00～22：00",
    "tags": [
      "中華料理",
      "泉州"
    ],
    "url": "https://goto-eat.weare.osaka-info.jp/gotoeat/gs196823/"
  },
  {
    "name": "四六時中",
    "address": "598-0021\n泉佐野市 日根野2496-1 イオンモール日根野",
    "tel": "072-468-1397",
    "openingHours": "11：00～22：00",
    "tags": [
      "和食",
      "泉州"
    ],
    "url": "https://goto-eat.weare.osaka-info.jp/gotoeat/gs196822/"
  },
  {
    "name": "台菜館",
    "address": "598-0021\n泉佐野市 日根野2496-1 イオンモール日根野",
    "tel": "072-467-2959",
    "openingHours": "11：00～21：00",
    "tags": [
      "中華料理",
      "泉州"
    ],
    "url": "https://goto-eat.weare.osaka-info.jp/gotoeat/gs196821/"
  },
  {
    "name": "かつ貴",
    "address": "598-0021\n泉佐野市 日根野2496-1 イオンモール日根野",
    "tel": "072-488-7588",
    "openingHours": "10：00～21：00",
    "tags": [
      "和食",
      "泉州"
    ],
    "url": "https://goto-eat.weare.osaka-info.jp/gotoeat/gs196820/"
  },
  {
    "name": "ミスタードーナツ",
    "address": "598-0021\n泉佐野市 日根野2496-1 イオンモール日根野",
    "tel": "072-450-2234",
    "openingHours": "10：00～21：00",
    "tags": [
      "カフェ・スイーツ",
      "泉州"
    ],
    "url": "https://goto-eat.weare.osaka-info.jp/gotoeat/gs196817/"
  },
  {
    "name": "ケンタッキーフライドチキン",
    "address": "598-0021\n泉佐野市 日根野2496-1 イオンモール日根野",
    "tel": "072-468-1387",
    "openingHours": "10：00～22：00",
    "tags": [
      "その他",
      "泉州"
    ],
    "url": "https://goto-eat.weare.osaka-info.jp/gotoeat/gs196816/"
  },
  {
    "name": "サーティワンアイスクリーム",
    "address": "598-0021\n泉佐野市 日根野2496-1 イオンモール日根野",
    "tel": "072-493-3140",
    "openingHours": "10：00～21：00",
    "tags": [
      "カフェ・スイーツ",
      "泉州"
    ],
    "url": "https://goto-eat.weare.osaka-info.jp/gotoeat/gs196814/"
  },
  {
    "name": "PRONTO　関西国際空港LCCターミナル店",
    "address": "549-0011\n泉南郡田尻町 泉州空港中13番 LCCターミナル内",
    "tel": "072-456-8585",
    "openingHours": "",
    "tags": [
      "イタリアン・フレンチ",
      "泉州"
    ],
    "url": "https://goto-eat.weare.osaka-info.jp/gotoeat/gs196310/"
  },
  {
    "name": "松のや貝塚店",
    "address": "597-0021\n貝塚市 小瀬1-28-13",
    "tel": "072-430-0121",
    "openingHours": "平日:10時から翌1時、土・日・祝日:9時から翌1(ラストオーダー0:30)",
    "tags": [
      "和食",
      "泉州"
    ],
    "url": "https://goto-eat.weare.osaka-info.jp/gotoeat/gs196180/"
  },
  {
    "name": "松屋 岸和田店",
    "address": "596-0825\n岸和田市 土生町2-7-17",
    "tel": "072-430-2174",
    "openingHours": "24H",
    "tags": [
      "和食",
      "泉州"
    ],
    "url": "https://goto-eat.weare.osaka-info.jp/gotoeat/gs196163/"
  },
  {
    "name": "松屋 春木店",
    "address": "596-0006\n岸和田市 春木若松町18-31",
    "tel": "072-430-5544",
    "openingHours": "5：00～2：00　土曜24H",
    "tags": [
      "和食",
      "泉州"
    ],
    "url": "https://goto-eat.weare.osaka-info.jp/gotoeat/gs196107/"
  },
  {
    "name": "わたりがにひとすじ　割烹松屋",
    "address": "598-0005\n泉佐野市 市場東2-312-3",
    "tel": "072-462-3740",
    "openingHours": "12時から14時　　17時半から21時半",
    "tags": [
      "和食",
      "泉州"
    ],
    "url": "https://goto-eat.weare.osaka-info.jp/gotoeat/gs195821/"
  },
  {
    "name": "らあめん天風軒　りんくう店",
    "address": "598-0093\n泉南郡田尻町 りんくうポート北5-6",
    "tel": "072-465-2055",
    "openingHours": "11時～22時",
    "tags": [
      "ラーメン・つけ麺",
      "泉州"
    ],
    "url": "https://goto-eat.weare.osaka-info.jp/gotoeat/gs195815/"
  },
  {
    "name": "らあめん天風軒　本店",
    "address": "598-0002\n泉佐野市 中庄894-1",
    "tel": "072-461-1187",
    "openingHours": "日～月11時～22時,土、金11時～24時",
    "tags": [
      "ラーメン・つけ麺",
      "泉州"
    ],
    "url": "https://goto-eat.weare.osaka-info.jp/gotoeat/gs195814/"
  },
  {
    "name": "ハンモックカフェ",
    "address": "597-0062\n貝塚市 澤407-20",
    "tel": "072-430-5494",
    "openingHours": "11時30分～18時",
    "tags": [
      "カフェ・スイーツ",
      "泉州"
    ],
    "url": "https://goto-eat.weare.osaka-info.jp/gotoeat/gs194602/"
  },
  {
    "name": "やきとり　きび　じゅにあ",
    "address": "597-0042\n貝塚市 名越695",
    "tel": "072-446-6221",
    "openingHours": "",
    "tags": [
      "居酒屋",
      "泉州"
    ],
    "url": "https://goto-eat.weare.osaka-info.jp/gotoeat/gs194501/"
  },
  {
    "name": "やきとり　きび",
    "address": "597-0042\n貝塚市 名越695",
    "tel": "072-447-0567",
    "openingHours": "",
    "tags": [
      "居酒屋",
      "泉州"
    ],
    "url": "https://goto-eat.weare.osaka-info.jp/gotoeat/gs194500/"
  },
  {
    "name": "うどんの庄福泉",
    "address": "596-0832\n岸和田市 極楽寺町488-10",
    "tel": "072-426-0987",
    "openingHours": "",
    "tags": [
      "うどん・そば",
      "泉州"
    ],
    "url": "https://goto-eat.weare.osaka-info.jp/gotoeat/gs194494/"
  },
  {
    "name": "鶴八",
    "address": "596-0054\n岸和田市 宮本町17-1",
    "tel": "072-432-6987",
    "openingHours": "",
    "tags": [
      "うどん・そば",
      "泉州"
    ],
    "url": "https://goto-eat.weare.osaka-info.jp/gotoeat/gs194490/"
  },
  {
    "name": "手打ちうどん不二屋",
    "address": "596-0005\n岸和田市 春木旭町5－25",
    "tel": "072-445-3733",
    "openingHours": "",
    "tags": [
      "うどん・そば",
      "泉州"
    ],
    "url": "https://goto-eat.weare.osaka-info.jp/gotoeat/gs194459/"
  },
  {
    "name": "大衆洋居酒屋　Bentensan",
    "address": "596-0054\n岸和田市 宮本町14-7",
    "tel": "072-438-0012",
    "openingHours": "",
    "tags": [
      "洋食・西洋料理",
      "泉州"
    ],
    "url": "https://goto-eat.weare.osaka-info.jp/gotoeat/gs194451/"
  },
  {
    "name": "kichitei月の笑",
    "address": "590-0406\n泉南郡熊取町 大久保東1-1-18",
    "tel": "072-452-5584",
    "openingHours": "",
    "tags": [
      "お好み焼き・たこ焼き",
      "泉州"
    ],
    "url": "https://goto-eat.weare.osaka-info.jp/gotoeat/gs194445/"
  },
  {
    "name": "ボン・ヴィラージュ",
    "address": "590-0521\n泉南市 樽井2-33-33 ミカサビル103号",
    "tel": "072-484-3237",
    "openingHours": "11:00~14:00 17:30~20:30",
    "tags": [
      "イタリアン・フレンチ",
      "泉州"
    ],
    "url": "https://goto-eat.weare.osaka-info.jp/gotoeat/gs194402/"
  },
  {
    "name": "小はれ",
    "address": "598-0007\n泉佐野市 上町3-5-25",
    "tel": "072-458-6580",
    "openingHours": "",
    "tags": [
      "居酒屋",
      "泉州"
    ],
    "url": "https://goto-eat.weare.osaka-info.jp/gotoeat/gs193799/"
  },
  {
    "name": "うつ輪",
    "address": "597-0033\n貝塚市 半田2-10-14",
    "tel": "072-426-2202",
    "openingHours": "11:30-14:00 17:30-20:30",
    "tags": [
      "うどん・そば",
      "泉州"
    ],
    "url": "https://goto-eat.weare.osaka-info.jp/gotoeat/gs193774/"
  },
  {
    "name": "九平",
    "address": "597-0083\n貝塚市 海塚197番地",
    "tel": "072-425-2472",
    "openingHours": "",
    "tags": [
      "お好み焼き・たこ焼き",
      "泉州"
    ],
    "url": "https://goto-eat.weare.osaka-info.jp/gotoeat/gs193769/"
  },
  {
    "name": "くら寿司泉南店",
    "address": "590-0521\n泉南市 樽井3-41-12",
    "tel": "072-447-9610",
    "openingHours": "平日:11時～23時　土日祝：11時～23時",
    "tags": [
      "寿司・魚料理",
      "泉州"
    ],
    "url": "https://goto-eat.weare.osaka-info.jp/gotoeat/gs193762/"
  },
  {
    "name": "くら寿司東貝塚店",
    "address": "597-0021\n貝塚市 小瀬188番地",
    "tel": "072-493-6114",
    "openingHours": "平日:11時～23時　土日祝：11時～23時",
    "tags": [
      "寿司・魚料理",
      "泉州"
    ],
    "url": "https://goto-eat.weare.osaka-info.jp/gotoeat/gs193758/"
  },
  {
    "name": "くら寿司貝塚脇浜店",
    "address": "597-0073\n貝塚市 脇浜1-12-6",
    "tel": "072-430-4601",
    "openingHours": "平日:11時～23時　土日祝：11時～23時",
    "tags": [
      "寿司・魚料理",
      "泉州"
    ],
    "url": "https://goto-eat.weare.osaka-info.jp/gotoeat/gs193752/"
  },
  {
    "name": "くら寿司小松里店",
    "address": "596-0821\n岸和田市 小松里町2565",
    "tel": "072-440-2511",
    "openingHours": "平日:11時～23時　土日祝：11時～23時",
    "tags": [
      "寿司・魚料理",
      "泉州"
    ],
    "url": "https://goto-eat.weare.osaka-info.jp/gotoeat/gs193742/"
  },
  {
    "name": "くら寿司今木店",
    "address": "596-0804\n岸和田市 今木町32-1",
    "tel": "072-440-2355",
    "openingHours": "平日:11時～23時　土日祝：11時～23時",
    "tags": [
      "寿司・魚料理",
      "泉州"
    ],
    "url": "https://goto-eat.weare.osaka-info.jp/gotoeat/gs193732/"
  },
  {
    "name": "くら寿司泉佐野店",
    "address": "598-0015\n泉佐野市 高松南2-6551-1",
    "tel": "072-462-6503",
    "openingHours": "平日:11時～23時　土日祝：11時～23時",
    "tags": [
      "寿司・魚料理",
      "泉州"
    ],
    "url": "https://goto-eat.weare.osaka-info.jp/gotoeat/gs193727/"
  },
  {
    "name": "酒と肴あべちゃん",
    "address": "597-0033\n貝塚市 半田1-18-19",
    "tel": "072-427-1177",
    "openingHours": "17時30分～24時",
    "tags": [
      "居酒屋",
      "泉州"
    ],
    "url": "https://goto-eat.weare.osaka-info.jp/gotoeat/gs193685/"
  },
  {
    "name": "やきとりBAR弁慶",
    "address": "599-0201\n阪南市 尾崎町1-1-7",
    "tel": "072-473-0427",
    "openingHours": "17:30～24:00",
    "tags": [
      "居酒屋",
      "泉州"
    ],
    "url": "https://goto-eat.weare.osaka-info.jp/gotoeat/gs193683/"
  },
  {
    "name": "菜豚",
    "address": "597-0073\n貝塚市 脇浜1-9-5",
    "tel": "072-439-2911",
    "openingHours": "17:50～22:00",
    "tags": [
      "居酒屋",
      "泉州"
    ],
    "url": "https://goto-eat.weare.osaka-info.jp/gotoeat/gs193585/"
  },
  {
    "name": "吉野家 岸和田和泉インター店",
    "address": "596-0808\n岸和田市 三田町４００－２１",
    "tel": "072-448-6370",
    "openingHours": "",
    "tags": [
      "その他",
      "泉州"
    ],
    "url": "https://goto-eat.weare.osaka-info.jp/gotoeat/gs193496/"
  },
  {
    "name": "吉野家 臨海岸和田店",
    "address": "596-0041\n岸和田市 下野町３丁目１０－３９",
    "tel": "072-430-5621",
    "openingHours": "",
    "tags": [
      "その他",
      "泉州"
    ],
    "url": "https://goto-eat.weare.osaka-info.jp/gotoeat/gs193495/"
  },
  {
    "name": "吉野家 臨海二色の浜店",
    "address": "597-0062\n貝塚市 澤８７７－１",
    "tel": "072-438-3533",
    "openingHours": "",
    "tags": [
      "その他",
      "泉州"
    ],
    "url": "https://goto-eat.weare.osaka-info.jp/gotoeat/gs193494/"
  },
  {
    "name": "吉野家 第二阪和貝塚店",
    "address": "597-0082\n貝塚市 石才２２９－１",
    "tel": "072-479-4677",
    "openingHours": "",
    "tags": [
      "その他",
      "泉州"
    ],
    "url": "https://goto-eat.weare.osaka-info.jp/gotoeat/gs193488/"
  },
  {
    "name": "吉野家 第二阪和岸和田八阪店",
    "address": "596-0049\n岸和田市 八阪町１丁目７－１３",
    "tel": "072-436-9001",
    "openingHours": "",
    "tags": [
      "その他",
      "泉州"
    ],
    "url": "https://goto-eat.weare.osaka-info.jp/gotoeat/gs193487/"
  },
  {
    "name": "吉野家 ２６号線阪南店",
    "address": "599-0203\n阪南市 黒田７０５－１",
    "tel": "072-473-8115",
    "openingHours": "",
    "tags": [
      "その他",
      "泉州"
    ],
    "url": "https://goto-eat.weare.osaka-info.jp/gotoeat/gs193486/"
  },
  {
    "name": "吉野家 第二阪和泉佐野店",
    "address": "598-0012\n泉佐野市 高松東２丁目６５２９",
    "tel": "072-460-2517",
    "openingHours": "",
    "tags": [
      "その他",
      "泉州"
    ],
    "url": "https://goto-eat.weare.osaka-info.jp/gotoeat/gs193485/"
  },
  {
    "name": "岸田亭",
    "address": "596-0073\n岸和田市 岸城町13-22",
    "tel": "072-432-1366",
    "openingHours": "",
    "tags": [
      "和食",
      "泉州"
    ],
    "url": "https://goto-eat.weare.osaka-info.jp/gotoeat/gs193425/"
  },
  {
    "name": "居酒屋渉人",
    "address": "597-0071\n貝塚市 加神1-4-28 貝塚セルシー1Ｆ",
    "tel": "072-488-7774",
    "openingHours": "17時～24時",
    "tags": [
      "居酒屋",
      "泉州"
    ],
    "url": "https://goto-eat.weare.osaka-info.jp/gotoeat/gs193301/"
  },
  {
    "name": "Sumiyaki さんぽ",
    "address": "597-0081\n貝塚市 麻生中993",
    "tel": "072-457-1154",
    "openingHours": "17時～11時",
    "tags": [
      "焼肉・ホルモン",
      "泉州"
    ],
    "url": "https://goto-eat.weare.osaka-info.jp/gotoeat/gs193174/"
  },
  {
    "name": "すいか",
    "address": "596-0055\n岸和田市 五軒屋町17-10",
    "tel": "072-433-0808",
    "openingHours": "17時～",
    "tags": [
      "居酒屋",
      "泉州"
    ],
    "url": "https://goto-eat.weare.osaka-info.jp/gotoeat/gs193158/"
  },
  {
    "name": "家庭料理　こころ",
    "address": "596-0054\n岸和田市 宮本町18-17",
    "tel": "072-433-1112",
    "openingHours": "17時～23時／日祝17時～21時",
    "tags": [
      "居酒屋",
      "泉州"
    ],
    "url": "https://goto-eat.weare.osaka-info.jp/gotoeat/gs193073/"
  },
  {
    "name": "やきとり大吉貝塚店",
    "address": "597-0002\n貝塚市 新町５－４ 森ビル",
    "tel": "072-437-7082",
    "openingHours": "１７時から２４時",
    "tags": [
      "居酒屋",
      "泉州"
    ],
    "url": "https://goto-eat.weare.osaka-info.jp/gotoeat/gs193014/"
  },
  {
    "name": "浜寿し",
    "address": "590-0526\n泉南市 男里7-32-11",
    "tel": "072-482-4917",
    "openingHours": "",
    "tags": [
      "寿司・魚料理",
      "泉州"
    ],
    "url": "https://goto-eat.weare.osaka-info.jp/gotoeat/gs192845/"
  },
  {
    "name": "ボンヴィラージュオゼ",
    "address": "596-0805\n岸和田市 田治米町140-1",
    "tel": "072-441-1641",
    "openingHours": "11:30～12:00/17:30~21:00",
    "tags": [
      "イタリアン・フレンチ",
      "泉州"
    ],
    "url": "https://goto-eat.weare.osaka-info.jp/gotoeat/gs192776/"
  },
  {
    "name": "東貝塚酒場　情熱ホルモン",
    "address": "597-0033\n貝塚市 半田１－９－３２",
    "tel": "072-426-5129",
    "openingHours": "17：00～24：00",
    "tags": [
      "焼肉・ホルモン",
      "泉州"
    ],
    "url": "https://goto-eat.weare.osaka-info.jp/gotoeat/gs192626/"
  },
  {
    "name": "熟成焼肉いちばん　岸和田店",
    "address": "596-0048\n岸和田市 上野町西6-24",
    "tel": "072-438-5301",
    "openingHours": "11：00～翌1：00",
    "tags": [
      "焼肉・ホルモン",
      "泉州"
    ],
    "url": "https://goto-eat.weare.osaka-info.jp/gotoeat/gs192458/"
  },
  {
    "name": "酒肆ダイニング鞍馬",
    "address": "596-0074\n岸和田市 本町1-9",
    "tel": "072-438-0046",
    "openingHours": "5:00~11:00",
    "tags": [
      "和食",
      "泉州"
    ],
    "url": "https://goto-eat.weare.osaka-info.jp/gotoeat/gs192443/"
  },
  {
    "name": "山内農場　泉佐野東口駅前店",
    "address": "598-0007\n泉佐野市 上町3-10-11 泉佐野ビル 1階",
    "tel": "072-469-7888",
    "openingHours": "詳細は店舗従業員までお問い合わせください。",
    "tags": [
      "居酒屋",
      "泉州"
    ],
    "url": "https://goto-eat.weare.osaka-info.jp/gotoeat/gs192427/"
  },
  {
    "name": "山内農場　岸和田駅前通商店街店",
    "address": "596-0054\n岸和田市 宮本町12-25 ファームビル 1階",
    "tel": "072-433-2388",
    "openingHours": "詳細は店舗従業員までお問い合わせください。",
    "tags": [
      "居酒屋",
      "泉州"
    ],
    "url": "https://goto-eat.weare.osaka-info.jp/gotoeat/gs192422/"
  },
  {
    "name": "目利きの銀次　東岸和田東口駅前店",
    "address": "596-0825\n岸和田市 土生町4-3-1 リハーブ 1階",
    "tel": "072-426-2388",
    "openingHours": "詳細は店舗従業員までお問い合わせください。",
    "tags": [
      "居酒屋",
      "泉州"
    ],
    "url": "https://goto-eat.weare.osaka-info.jp/gotoeat/gs192417/"
  },
  {
    "name": "白木屋　泉佐野東口駅前店",
    "address": "598-0007\n泉佐野市 上町3-10-11 泉佐野ビル 2階",
    "tel": "072-461-0488",
    "openingHours": "詳細は店舗従業員までお問い合わせください。",
    "tags": [
      "居酒屋",
      "泉州"
    ],
    "url": "https://goto-eat.weare.osaka-info.jp/gotoeat/gs192384/"
  },
  {
    "name": "鶏のジョージ　尾崎東口駅前店",
    "address": "599-0201\n阪南市 尾崎町105-5 池田ビル 1階",
    "tel": "072-472-3388",
    "openingHours": "詳細は店舗従業員までお問い合わせください。",
    "tags": [
      "居酒屋",
      "泉州"
    ],
    "url": "https://goto-eat.weare.osaka-info.jp/gotoeat/gs192376/"
  },
  {
    "name": "Kitchen&Bar DeexS",
    "address": "598-0007\n泉佐野市 上町3-11-5 うえばやしビル　2階",
    "tel": "072-475-6565",
    "openingHours": "18時～25時",
    "tags": [
      "居酒屋",
      "泉州"
    ],
    "url": "https://goto-eat.weare.osaka-info.jp/gotoeat/gs191843/"
  },
  {
    "name": "焼肉ダイニングわさび",
    "address": "596-0823\n岸和田市 下松町5078 プチワールドs101",
    "tel": "072-436-3345",
    "openingHours": "17:00～",
    "tags": [
      "焼肉・ホルモン",
      "泉州"
    ],
    "url": "https://goto-eat.weare.osaka-info.jp/gotoeat/gs191625/"
  },
  {
    "name": "すしん坊",
    "address": "596-0825\n岸和田市 土生町7-2-29",
    "tel": "072-420-5757",
    "openingHours": "",
    "tags": [
      "寿司・魚料理",
      "泉州"
    ],
    "url": "https://goto-eat.weare.osaka-info.jp/gotoeat/gs191541/"
  },
  {
    "name": "イタリアンレストラン　ヌーノ",
    "address": "590-0521\n泉南市 樽井2-22-13 コンコルドビル101",
    "tel": "072-485-2388",
    "openingHours": "ランチ１１時３０分から１４時ラストオーダー　ディナー１７時３０分から２１時ラストオーダー",
    "tags": [
      "イタリアン・フレンチ",
      "泉州"
    ],
    "url": "https://goto-eat.weare.osaka-info.jp/gotoeat/gs191514/"
  },
  {
    "name": "やきとり家 はっかく長滝店",
    "address": "598-0034\n泉佐野市 長滝1065-1",
    "tel": "072-479-8186",
    "openingHours": "17時～24時",
    "tags": [
      "居酒屋",
      "泉州"
    ],
    "url": "https://goto-eat.weare.osaka-info.jp/gotoeat/gs191507/"
  },
  {
    "name": "溶岩焼き　鷄KOKKO",
    "address": "596-0055\n岸和田市 五軒屋町17-12 都ビル103号",
    "tel": "070-3967-9592",
    "openingHours": "18-00～23-00",
    "tags": [
      "焼肉・ホルモン",
      "泉州"
    ],
    "url": "https://goto-eat.weare.osaka-info.jp/gotoeat/gs191458/"
  },
  {
    "name": "KUA`AINAりんくうプレミアムアウトレット店",
    "address": "598-0047\n泉佐野市 りんくう往来南3-28 りんくうプレミアムアウトレット2185区画",
    "tel": "072-458-0400",
    "openingHours": "11:00-21:00",
    "tags": [
      "その他",
      "泉州"
    ],
    "url": "https://goto-eat.weare.osaka-info.jp/gotoeat/gs191446/"
  },
  {
    "name": "YAKOZE ますや　焼肉＆ビール園",
    "address": "596-0825\n岸和田市 土生町4167 焼肉ますや",
    "tel": "072-439-2329",
    "openingHours": "17時から23時",
    "tags": [
      "焼肉・ホルモン",
      "泉州"
    ],
    "url": "https://goto-eat.weare.osaka-info.jp/gotoeat/gs191400/"
  },
  {
    "name": "活魚寿司　岸和田店",
    "address": "596-0804\n岸和田市 今木町15-1 活魚寿司　岸和田店",
    "tel": "072-479-8306",
    "openingHours": "11:00～23:00",
    "tags": [
      "寿司・魚料理",
      "泉州"
    ],
    "url": "https://goto-eat.weare.osaka-info.jp/gotoeat/gs191223/"
  },
  {
    "name": "活魚寿司　田尻店",
    "address": "598-0091\n泉南郡田尻町 嘉祥寺39-1 活魚寿司　田尻店",
    "tel": "072-447-4600",
    "openingHours": "11:00～23:00",
    "tags": [
      "寿司・魚料理",
      "泉州"
    ],
    "url": "https://goto-eat.weare.osaka-info.jp/gotoeat/gs191222/"
  },
  {
    "name": "活魚寿司　鶴原店",
    "address": "598-0071\n泉佐野市 鶴原1953-2 活魚寿司鶴原店",
    "tel": "072-458-6106",
    "openingHours": "11:00～23:00",
    "tags": [
      "寿司・魚料理",
      "泉州"
    ],
    "url": "https://goto-eat.weare.osaka-info.jp/gotoeat/gs191221/"
  },
  {
    "name": "やよい軒岸和田三田町店",
    "address": "596-0808\n岸和田市 三田町622",
    "tel": "072-448-6288",
    "openingHours": "10：00～23：00",
    "tags": [
      "和食",
      "泉州"
    ],
    "url": "https://goto-eat.weare.osaka-info.jp/gotoeat/gs191051/"
  },
  {
    "name": "居酒屋きらく",
    "address": "599-0212\n阪南市 自然田105",
    "tel": "072-473-0028",
    "openingHours": "17時～23時",
    "tags": [
      "居酒屋",
      "泉州"
    ],
    "url": "https://goto-eat.weare.osaka-info.jp/gotoeat/gs190798/"
  },
  {
    "name": "鉄板&ダイニング　NANDE",
    "address": "598-0054\n泉佐野市 栄町7-21",
    "tel": "072-469-2229",
    "openingHours": "18：00～25：00",
    "tags": [
      "洋食・西洋料理",
      "泉州"
    ],
    "url": "https://goto-eat.weare.osaka-info.jp/gotoeat/gs190778/"
  },
  {
    "name": "野菜巻き串バル　ぽっぽ",
    "address": "599-0202\n阪南市 下出605-1 泉州住研ビル１F",
    "tel": "072-479-4460",
    "openingHours": "11:30~14:00 17:30~23:00",
    "tags": [
      "居酒屋",
      "泉州"
    ],
    "url": "https://goto-eat.weare.osaka-info.jp/gotoeat/gs190734/"
  },
  {
    "name": "居食屋　花びょうぶ",
    "address": "596-0047\n岸和田市 上野町東7-25",
    "tel": "0724-39-3538",
    "openingHours": "１７時30分～２３時３０分",
    "tags": [
      "居酒屋",
      "泉州"
    ],
    "url": "https://goto-eat.weare.osaka-info.jp/gotoeat/gs190724/"
  },
  {
    "name": "べるでキッチン",
    "address": "599-0202\n阪南市 下出99-4",
    "tel": "072-473-2960",
    "openingHours": "",
    "tags": [
      "居酒屋",
      "泉州"
    ],
    "url": "https://goto-eat.weare.osaka-info.jp/gotoeat/gs190682/"
  },
  {
    "name": "魚ダイニング光",
    "address": "599-0212\n阪南市 自然田820-2",
    "tel": "072-472-5038",
    "openingHours": "11：00～14：00／17：00～22：00",
    "tags": [
      "和食",
      "泉州"
    ],
    "url": "https://goto-eat.weare.osaka-info.jp/gotoeat/gs190630/"
  },
  {
    "name": "家でのこづち",
    "address": "598-0071\n泉佐野市 鶴原1833-2",
    "tel": "072-464-8811",
    "openingHours": "10:00～19:00",
    "tags": [
      "カフェ・スイーツ",
      "泉州"
    ],
    "url": "https://goto-eat.weare.osaka-info.jp/gotoeat/gs190556/"
  },
  {
    "name": "千亀利寿司",
    "address": "596-0072\n岸和田市 堺町7-10",
    "tel": "072-422-7371",
    "openingHours": "11時～23時",
    "tags": [
      "寿司・魚料理",
      "泉州"
    ],
    "url": "https://goto-eat.weare.osaka-info.jp/gotoeat/gs190518/"
  },
  {
    "name": "お好み焼き・鉄板焼きOWL(アウル)",
    "address": "596-0821\n岸和田市 小松里町1057-1",
    "tel": "072-443-2960",
    "openingHours": "17～22",
    "tags": [
      "お好み焼き・たこ焼き",
      "泉州"
    ],
    "url": "https://goto-eat.weare.osaka-info.jp/gotoeat/gs190488/"
  },
  {
    "name": "焼鳥八角　日根野店",
    "address": "598-0012\n泉佐野市 日根野4274-1",
    "tel": "072-461-3800",
    "openingHours": "",
    "tags": [
      "居酒屋",
      "泉州"
    ],
    "url": "https://goto-eat.weare.osaka-info.jp/gotoeat/gs190482/"
  },
  {
    "name": "新生寿司",
    "address": "599-0211\n阪南市 鳥取中159-4",
    "tel": "072-471-0371",
    "openingHours": "11：00～14：00　17：00～21：00",
    "tags": [
      "寿司・魚料理",
      "泉州"
    ],
    "url": "https://goto-eat.weare.osaka-info.jp/gotoeat/gs190447/"
  },
  {
    "name": "酒和酒話",
    "address": "598-0001\n泉佐野市 上瓦屋865-1",
    "tel": "072-469-1311",
    "openingHours": "17時～0時",
    "tags": [
      "居酒屋",
      "泉州"
    ],
    "url": "https://goto-eat.weare.osaka-info.jp/gotoeat/gs190441/"
  },
  {
    "name": "カレー&洋食の店　Ｅａｔ　ｉｔ",
    "address": "598-0046\n泉佐野市 羽倉崎2丁目5ー3ー15",
    "tel": "072-465-7599",
    "openingHours": "11:00～21:00",
    "tags": [
      "カレー",
      "泉州"
    ],
    "url": "https://goto-eat.weare.osaka-info.jp/gotoeat/gs190433/"
  },
  {
    "name": "居酒屋いっすい 　",
    "address": "597-0043\n貝塚市 橋本365-2",
    "tel": "072-432-4557",
    "openingHours": "17時～23時30分",
    "tags": [
      "居酒屋",
      "泉州"
    ],
    "url": "https://goto-eat.weare.osaka-info.jp/gotoeat/gs190429/"
  },
  {
    "name": "丸源ラーメン　岸和田八阪店",
    "address": "596-0049\n岸和田市 八阪町１丁目３－２３",
    "tel": "072-479-4780",
    "openingHours": "11：00-24：30",
    "tags": [
      "ラーメン・つけ麺",
      "泉州"
    ],
    "url": "https://goto-eat.weare.osaka-info.jp/gotoeat/gs190323/"
  },
  {
    "name": "焼肉きんぐ　泉佐野店",
    "address": "598-0001\n泉佐野市 上瓦屋５３８",
    "tel": "072-493-2932",
    "openingHours": "平日 17：00-24：00　土日祝 11：30-24：00",
    "tags": [
      "焼肉・ホルモン",
      "泉州"
    ],
    "url": "https://goto-eat.weare.osaka-info.jp/gotoeat/gs190322/"
  },
  {
    "name": "丸源ラーメン　岸和田春木店",
    "address": "596-0023\n岸和田市 八幡町４－５２",
    "tel": "072-430-6252",
    "openingHours": "11：00-24：30",
    "tags": [
      "ラーメン・つけ麺",
      "泉州"
    ],
    "url": "https://goto-eat.weare.osaka-info.jp/gotoeat/gs190320/"
  },
  {
    "name": "さくら家",
    "address": "596-0049\n岸和田市 八阪町1-7-12",
    "tel": "072-457-4019",
    "openingHours": "",
    "tags": [
      "居酒屋",
      "泉州"
    ],
    "url": "https://goto-eat.weare.osaka-info.jp/gotoeat/gs190223/"
  },
  {
    "name": "仕出し割烹　魚初",
    "address": "598-0054\n泉佐野市 栄町6-5",
    "tel": "072-463-0121",
    "openingHours": "9:00～21:30",
    "tags": [
      "和食",
      "泉州"
    ],
    "url": "https://goto-eat.weare.osaka-info.jp/gotoeat/gs190004/"
  },
  {
    "name": "こだわり肉　やきや",
    "address": "590-0405\n泉南郡熊取町 大久保南2-21-5",
    "tel": "080-5639-2929",
    "openingHours": "18時～24時　肉の仕入れ状況により、予告なく閉めていることあり",
    "tags": [
      "焼肉・ホルモン",
      "泉州"
    ],
    "url": "https://goto-eat.weare.osaka-info.jp/gotoeat/gs189983/"
  },
  {
    "name": "かんのん茶屋",
    "address": "597-0104\n貝塚市 水間６３８番地",
    "tel": "072-447-1333",
    "openingHours": "9:00-16:00",
    "tags": [
      "その他",
      "泉州"
    ],
    "url": "https://goto-eat.weare.osaka-info.jp/gotoeat/gs189898/"
  },
  {
    "name": "居酒屋　おかめ",
    "address": "596-0812\n岸和田市 大町402番地",
    "tel": "072-443-5221",
    "openingHours": "17時～25時",
    "tags": [
      "居酒屋",
      "泉州"
    ],
    "url": "https://goto-eat.weare.osaka-info.jp/gotoeat/gs189769/"
  },
  {
    "name": "海鮮処椿",
    "address": "596-0006\n岸和田市 春木若松町18-30",
    "tel": "072-438-3477",
    "openingHours": "11:00～15:00 17:00～23:00",
    "tags": [
      "居酒屋",
      "泉州"
    ],
    "url": "https://goto-eat.weare.osaka-info.jp/gotoeat/gs189750/"
  },
  {
    "name": "台所家",
    "address": "596-0076\n岸和田市 野田町1-12-3",
    "tel": "072-422-4360",
    "openingHours": "",
    "tags": [
      "居酒屋",
      "泉州"
    ],
    "url": "https://goto-eat.weare.osaka-info.jp/gotoeat/gs189611/"
  },
  {
    "name": "キッチンまろ",
    "address": "598-0093\n泉南郡田尻町 りんくうポート北1番 田尻漁業内",
    "tel": "090-8385-8945",
    "openingHours": "",
    "tags": [
      "その他",
      "泉州"
    ],
    "url": "https://goto-eat.weare.osaka-info.jp/gotoeat/gs189599/"
  },
  {
    "name": "ローストビーフ星　イオンモールりんくう泉南店",
    "address": "590-0535\n泉南市 りんくう南浜3-12",
    "tel": "072-480-2112",
    "openingHours": "10：00～21：00",
    "tags": [
      "洋食・西洋料理",
      "泉州"
    ],
    "url": "https://goto-eat.weare.osaka-info.jp/gotoeat/gs189557/"
  },
  {
    "name": "しゃぶ菜　イオンモールりんくう泉南店",
    "address": "590-0535\n泉南市 りんくう南浜3-12",
    "tel": "072-480-6181",
    "openingHours": "",
    "tags": [
      "鍋",
      "泉州"
    ],
    "url": "https://goto-eat.weare.osaka-info.jp/gotoeat/gs189556/"
  },
  {
    "name": "鳥さく　イオンモールりんくう泉南店",
    "address": "590-0535\n泉南市 りんくう南浜3-12",
    "tel": "072-479-3877",
    "openingHours": "10：00～21：00",
    "tags": [
      "和食",
      "泉州"
    ],
    "url": "https://goto-eat.weare.osaka-info.jp/gotoeat/gs189555/"
  },
  {
    "name": "欣とと",
    "address": "597-0033\n貝塚市 半田765-6",
    "tel": "072-428-1818",
    "openingHours": "＜ランチ＞11：30～14：00（予約のみ）/＜ディナー＞16：30～24：00（L.O23：30）",
    "tags": [
      "和食",
      "泉州"
    ],
    "url": "https://goto-eat.weare.osaka-info.jp/gotoeat/gs189529/"
  },
  {
    "name": "焼肉ひよし",
    "address": "596-0821\n岸和田市 小松里町940-5",
    "tel": "072-479-8146",
    "openingHours": "平日11時~14時　17時~22時　土日祝12時~15時　17時~22時",
    "tags": [
      "焼肉・ホルモン",
      "泉州"
    ],
    "url": "https://goto-eat.weare.osaka-info.jp/gotoeat/gs189497/"
  },
  {
    "name": "ラーメンまこと屋貝塚店",
    "address": "597-0032\n貝塚市 永吉66-1",
    "tel": "072-431-3777",
    "openingHours": "11：00～翌1：00",
    "tags": [
      "ラーメン・つけ麺",
      "泉州"
    ],
    "url": "https://goto-eat.weare.osaka-info.jp/gotoeat/gs189455/"
  },
  {
    "name": "ラーメンまこと屋岸和田三田店",
    "address": "596-0808\n岸和田市 三田町49-1",
    "tel": "072-448-5777",
    "openingHours": "11：00～0：00",
    "tags": [
      "ラーメン・つけ麺",
      "泉州"
    ],
    "url": "https://goto-eat.weare.osaka-info.jp/gotoeat/gs189454/"
  },
  {
    "name": "BAGEL&BAGELりんくうプレミアム・アウトレット店",
    "address": "598-0047\n泉佐野市 りんくう往来南3-28 りんくうプレミアム・アウトレット1F 1945区画",
    "tel": "0724-61-0131",
    "openingHours": "",
    "tags": [
      "カフェ・スイーツ",
      "泉州"
    ],
    "url": "https://goto-eat.weare.osaka-info.jp/gotoeat/gs188296/"
  },
  {
    "name": "ラーメン横綱岸和田店",
    "address": "596-0821\n岸和田市 小松里町2419番地",
    "tel": "072-441-5150",
    "openingHours": "午前11時～翌朝5時",
    "tags": [
      "ラーメン・つけ麺",
      "泉州"
    ],
    "url": "https://goto-eat.weare.osaka-info.jp/gotoeat/gs188141/"
  },
  {
    "name": "FUYOEN りんくう公園店",
    "address": "590-0535\n泉南市 りんくう南浜3番201　 泉南りんくう公園内",
    "tel": "072-447-7030",
    "openingHours": "",
    "tags": [
      "中華料理",
      "泉州"
    ],
    "url": "https://goto-eat.weare.osaka-info.jp/gotoeat/gs188005/"
  },
  {
    "name": "居酒屋咲",
    "address": "597-0043\n貝塚市 橋本297",
    "tel": "072-437-5001",
    "openingHours": "16時～21時",
    "tags": [
      "居酒屋",
      "泉州"
    ],
    "url": "https://goto-eat.weare.osaka-info.jp/gotoeat/gs187962/"
  },
  {
    "name": "ロイヤルホスト泉佐野店",
    "address": "598-0015\n泉佐野市 高松南1-1-1",
    "tel": "072-461-1951",
    "openingHours": "８：００～２３：００",
    "tags": [
      "洋食・西洋料理",
      "泉州"
    ],
    "url": "https://goto-eat.weare.osaka-info.jp/gotoeat/gs187809/"
  },
  {
    "name": "スターバックスコーヒー　イオンモールりんくう泉南店",
    "address": "590-0535\n泉南市 りんくう南浜3-12",
    "tel": "072-480-6626",
    "openingHours": "",
    "tags": [
      "カフェ・スイーツ",
      "泉州"
    ],
    "url": "https://goto-eat.weare.osaka-info.jp/gotoeat/gs187797/"
  },
  {
    "name": "ラーメン魁力屋　イオンモールりんくう泉南店",
    "address": "590-0535\n泉南市 りんくう南浜3-12",
    "tel": "072-493-2399",
    "openingHours": "11：00～22：00",
    "tags": [
      "ラーメン・つけ麺",
      "泉州"
    ],
    "url": "https://goto-eat.weare.osaka-info.jp/gotoeat/gs187796/"
  },
  {
    "name": "酒房まるの台所Plus",
    "address": "596-0825\n岸和田市 土生町4-6-17",
    "tel": "072-426-2999",
    "openingHours": "",
    "tags": [
      "居酒屋",
      "泉州"
    ],
    "url": "https://goto-eat.weare.osaka-info.jp/gotoeat/gs187760/"
  },
  {
    "name": "かつや岸和田八阪店",
    "address": "596-0049\n岸和田市 八阪町1丁目10－35",
    "tel": "072-447-7230",
    "openingHours": "10:30-24:00(LO23:30)",
    "tags": [
      "その他",
      "泉州"
    ],
    "url": "https://goto-eat.weare.osaka-info.jp/gotoeat/gs308018/"
  },
  {
    "name": "からやま岸和田土生店",
    "address": "596-0825\n岸和田市 土生町3-2-20",
    "tel": "072-431-0730",
    "openingHours": "10:30－23:00(LO22:30)",
    "tags": [
      "その他",
      "泉州"
    ],
    "url": "https://goto-eat.weare.osaka-info.jp/gotoeat/gs187755/"
  },
  {
    "name": "かつや岸和田三田店",
    "address": "596-0808\n岸和田市 三田町637-1",
    "tel": "072-440-0808",
    "openingHours": "10:30-24:00(LO23:30)",
    "tags": [
      "その他",
      "泉州"
    ],
    "url": "https://goto-eat.weare.osaka-info.jp/gotoeat/gs187747/"
  },
  {
    "name": "かつや泉佐野店",
    "address": "598-0033\n泉佐野市 南中安松763-6",
    "tel": "072-490-2868",
    "openingHours": "10:30-24:00(LO23:30)",
    "tags": [
      "その他",
      "泉州"
    ],
    "url": "https://goto-eat.weare.osaka-info.jp/gotoeat/gs187745/"
  },
  {
    "name": "ステーキハウス　サンシャイン",
    "address": "597-0072\n貝塚市 畠中2-22-3",
    "tel": "072-432-2911",
    "openingHours": "11:30～14:00 17:00～21:30",
    "tags": [
      "その他",
      "泉州"
    ],
    "url": "https://goto-eat.weare.osaka-info.jp/gotoeat/gs187546/"
  },
  {
    "name": "NEW OLD STOCK",
    "address": "598-0007\n泉佐野市 上町3-6-32-3F 東海谷ビル",
    "tel": "072-479-3870",
    "openingHours": "19時-25時",
    "tags": [
      "居酒屋",
      "泉州"
    ],
    "url": "https://goto-eat.weare.osaka-info.jp/gotoeat/gs187539/"
  },
  {
    "name": "TINY'S cafe",
    "address": "598-0007\n泉佐野市 上町3-7-11-201 エースビル",
    "tel": "072-462-0313",
    "openingHours": "18時-26時",
    "tags": [
      "居酒屋",
      "泉州"
    ],
    "url": "https://goto-eat.weare.osaka-info.jp/gotoeat/gs187538/"
  },
  {
    "name": "アントニオ焼肉",
    "address": "590-0457\n泉南郡熊取町 朝代東1-6-7 ダリアタウン",
    "tel": "072-415-0475",
    "openingHours": "17:00-23:00",
    "tags": [
      "焼肉・ホルモン",
      "泉州"
    ],
    "url": "https://goto-eat.weare.osaka-info.jp/gotoeat/gs187523/"
  },
  {
    "name": "やきとり大吉　鶴原店",
    "address": "598-0071\n泉佐野市 鶴原2015-8",
    "tel": "072-469-3277",
    "openingHours": "",
    "tags": [
      "居酒屋",
      "泉州"
    ],
    "url": "https://goto-eat.weare.osaka-info.jp/gotoeat/gs187362/"
  },
  {
    "name": "七福堂　岸和田店",
    "address": "596-0014\n岸和田市 港緑町2-3 岸和田カンカンベイサイドモール",
    "tel": "0724-68-8775",
    "openingHours": "10：00～20：00",
    "tags": [
      "お好み焼き・たこ焼き",
      "泉州"
    ],
    "url": "https://goto-eat.weare.osaka-info.jp/gotoeat/gs187111/"
  },
  {
    "name": "バーベキューガーデン奥貝塚（少年自然の家内）",
    "address": "597-0102\n貝塚市 木積秋山長尾3350 大阪府立少年自然の家内",
    "tel": "072-478-8331",
    "openingHours": "11時～20時　（昼・夜入替制）",
    "tags": [
      "その他",
      "泉州"
    ],
    "url": "https://goto-eat.weare.osaka-info.jp/gotoeat/gs187081/"
  },
  {
    "name": "長田本庄軒イオンモールりんくう泉南",
    "address": "590-0535\n泉南市 りんくう南浜3-12 イオンモールりんくう泉南2F",
    "tel": "072-480-6268",
    "openingHours": "",
    "tags": [
      "その他",
      "泉州"
    ],
    "url": "https://goto-eat.weare.osaka-info.jp/gotoeat/gs186098/"
  },
  {
    "name": "炭火焼肉　香煙　岸和田店",
    "address": "596-0001\n岸和田市 磯上町4-22-33",
    "tel": "072-423-2110",
    "openingHours": "17:00~23:00",
    "tags": [
      "焼肉・ホルモン",
      "泉州"
    ],
    "url": "https://goto-eat.weare.osaka-info.jp/gotoeat/gs185966/"
  },
  {
    "name": "中華料理清華園",
    "address": "599-0221\n阪南市 石田１８５－１",
    "tel": "072-472-7789",
    "openingHours": "11時ー15時　17時ー21時",
    "tags": [
      "中華料理",
      "泉州"
    ],
    "url": "https://goto-eat.weare.osaka-info.jp/gotoeat/gs185888/"
  },
  {
    "name": "地鳥茶屋　鳥喜",
    "address": "590-0441\n泉南郡熊取町 久保2-1125-1",
    "tel": "072-452-4711",
    "openingHours": "",
    "tags": [
      "和食",
      "泉州"
    ],
    "url": "https://goto-eat.weare.osaka-info.jp/gotoeat/gs185863/"
  },
  {
    "name": "スシロー岸和田店",
    "address": "596-0004\n岸和田市 荒木町2丁目20番6号",
    "tel": "072-448-7400",
    "openingHours": "",
    "tags": [
      "寿司・魚料理",
      "泉州"
    ],
    "url": "https://goto-eat.weare.osaka-info.jp/gotoeat/gs319910/"
  },
  {
    "name": "スシロー泉佐野鶴原店",
    "address": "598-0071\n泉佐野市 鶴原1731-3",
    "tel": "072-458-0370",
    "openingHours": "月～金11：00～22：30\n土日祝10：30～23：00",
    "tags": [
      "寿司・魚料理",
      "泉州"
    ],
    "url": "https://goto-eat.weare.osaka-info.jp/gotoeat/gs185843/"
  },
  {
    "name": "スシロー泉佐野店",
    "address": "598-0035\n泉佐野市 南中樫井583-3",
    "tel": "072-490-0360",
    "openingHours": "月～金11：00～23：00\n土日祝10：30～23：00",
    "tags": [
      "寿司・魚料理",
      "泉州"
    ],
    "url": "https://goto-eat.weare.osaka-info.jp/gotoeat/gs185831/"
  },
  {
    "name": "BUTCHER'S GRILL×やみいち",
    "address": "598-0063\n泉佐野市 湊4-2-7",
    "tel": "072-458-2282",
    "openingHours": "",
    "tags": [
      "居酒屋",
      "泉州"
    ],
    "url": "https://goto-eat.weare.osaka-info.jp/gotoeat/gs185707/"
  },
  {
    "name": "寿司割烹みやもと",
    "address": "599-0201\n阪南市 尾崎町127-7 典昭ビル",
    "tel": "072-473-2525",
    "openingHours": "11:00～14:00 (L.O.13:30)、17:00～22:00 (21:30)",
    "tags": [
      "寿司・魚料理",
      "泉州"
    ],
    "url": "https://goto-eat.weare.osaka-info.jp/gotoeat/gs185704/"
  },
  {
    "name": "Snow Peak 大阪りんくう Snow Peak Eat",
    "address": "598-8509\n泉佐野市 りんくう往来南４－１７ りんくうプレミアムアウトレット7900区",
    "tel": "072-468-7016",
    "openingHours": "11:00~21:00",
    "tags": [
      "洋食・西洋料理",
      "泉州"
    ],
    "url": "https://goto-eat.weare.osaka-info.jp/gotoeat/gs185425/"
  },
  {
    "name": "ぢどり亭東岸和田店",
    "address": "596-0825\n岸和田市 土生町2-31-10 ドミール橘",
    "tel": "072-436-2989",
    "openingHours": "17時～24時",
    "tags": [
      "居酒屋",
      "泉州"
    ],
    "url": "https://goto-eat.weare.osaka-info.jp/gotoeat/gs185353/"
  },
  {
    "name": "有限会社料亭この木",
    "address": "597-0001\n貝塚市 近木町5-20",
    "tel": "072-422-0418",
    "openingHours": "11時30分-22時",
    "tags": [
      "和食",
      "泉州"
    ],
    "url": "https://goto-eat.weare.osaka-info.jp/gotoeat/gs185189/"
  },
  {
    "name": "LALALA珈琲",
    "address": "598-0015\n泉佐野市 高松南3-5-30",
    "tel": "070-1742-3586",
    "openingHours": "11時半~15時 17時~22時",
    "tags": [
      "その他",
      "泉州"
    ],
    "url": "https://goto-eat.weare.osaka-info.jp/gotoeat/gs184356/"
  },
  {
    "name": "焼肉居酒屋三徳",
    "address": "596-0825\n岸和田市 土生町2-25-3",
    "tel": "072-431-3109",
    "openingHours": "17:00～1:00",
    "tags": [
      "焼肉・ホルモン",
      "泉州"
    ],
    "url": "https://goto-eat.weare.osaka-info.jp/gotoeat/gs184317/"
  },
  {
    "name": "ピッツェリア エッセ ディ ピュ",
    "address": "598-0048\n泉佐野市 りんくう往来北6 いずみさの関空マリーナ内",
    "tel": "072-464-1320",
    "openingHours": "11:30～14:00　18:00～19:30",
    "tags": [
      "イタリアン・フレンチ",
      "泉州"
    ],
    "url": "https://goto-eat.weare.osaka-info.jp/gotoeat/gs184313/"
  },
  {
    "name": "リストランテ アパパーチョ",
    "address": "598-0047\n泉佐野市 りんくう往来南3-41 メディカルりんくうポート1F",
    "tel": "0724-25-9054",
    "openingHours": "11:30～14:00　18:00～19:30",
    "tags": [
      "イタリアン・フレンチ",
      "泉州"
    ],
    "url": "https://goto-eat.weare.osaka-info.jp/gotoeat/gs184312/"
  },
  {
    "name": "魚家うずしお",
    "address": "597-0051\n貝塚市 王子９２７－１",
    "tel": "072-438-2775",
    "openingHours": "",
    "tags": [
      "寿司・魚料理",
      "泉州"
    ],
    "url": "https://goto-eat.weare.osaka-info.jp/gotoeat/gs184292/"
  },
  {
    "name": "コションドールきたの",
    "address": "597-0083\n貝塚市 海塚3-7-11",
    "tel": "072-431-6561",
    "openingHours": "11:30～15:00 18:00～22:00",
    "tags": [
      "イタリアン・フレンチ",
      "泉州"
    ],
    "url": "https://goto-eat.weare.osaka-info.jp/gotoeat/gs184284/"
  },
  {
    "name": "イル　ピアット",
    "address": "599-0212\n阪南市 自然田820-2",
    "tel": "072-472-5826",
    "openingHours": "11：30~13：30　17：30~20：00",
    "tags": [
      "イタリアン・フレンチ",
      "泉州"
    ],
    "url": "https://goto-eat.weare.osaka-info.jp/gotoeat/gs184263/"
  },
  {
    "name": "Hale‘aina",
    "address": "598-0011\n泉佐野市 高松北1-2-34、2F",
    "tel": "072-462-1773",
    "openingHours": "18:00～翌2:00",
    "tags": [
      "洋食・西洋料理",
      "泉州"
    ],
    "url": "https://goto-eat.weare.osaka-info.jp/gotoeat/gs184259/"
  },
  {
    "name": "SOUNDバル",
    "address": "597-0001\n貝塚市 近木町12-7",
    "tel": "090-1132-4419",
    "openingHours": "",
    "tags": [
      "その他",
      "泉州"
    ],
    "url": "https://goto-eat.weare.osaka-info.jp/gotoeat/gs184228/"
  },
  {
    "name": "割烹　美鈴",
    "address": "590-0521\n泉南市 樽井７-２４-１４",
    "tel": "072-483-4746",
    "openingHours": "10時～21時",
    "tags": [
      "寿司・魚料理",
      "泉州"
    ],
    "url": "https://goto-eat.weare.osaka-info.jp/gotoeat/gs184221/"
  },
  {
    "name": "くにべ",
    "address": "599-0301\n泉南郡岬町 淡輪5746-25",
    "tel": "072-492-3040",
    "openingHours": "11:00~20:30",
    "tags": [
      "和食",
      "泉州"
    ],
    "url": "https://goto-eat.weare.osaka-info.jp/gotoeat/gs184213/"
  },
  {
    "name": "喫茶ペプシ",
    "address": "597-0083\n貝塚市 海塚1丁目138",
    "tel": "072-431-5236",
    "openingHours": "7時から19時まで",
    "tags": [
      "カフェ・スイーツ",
      "泉州"
    ],
    "url": "https://goto-eat.weare.osaka-info.jp/gotoeat/gs184211/"
  },
  {
    "name": "大正",
    "address": "596-0034\n岸和田市 春木本町 16-14",
    "tel": "072-439-9353",
    "openingHours": "11:30～14:30 17:00～22:00",
    "tags": [
      "和食",
      "泉州"
    ],
    "url": "https://goto-eat.weare.osaka-info.jp/gotoeat/gs183766/"
  },
  {
    "name": "ぎょーざやさん",
    "address": "590-0403\n泉南郡熊取町 大久保中2-4-7",
    "tel": "072-453-4444",
    "openingHours": "11:30-22:00",
    "tags": [
      "中華料理",
      "泉州"
    ],
    "url": "https://goto-eat.weare.osaka-info.jp/gotoeat/gs183520/"
  },
  {
    "name": "う我寿",
    "address": "596-0053\n岸和田市 沼町10-11 う我寿",
    "tel": "072-439-7169",
    "openingHours": "12時から2時　5時から23時",
    "tags": [
      "寿司・魚料理",
      "泉州"
    ],
    "url": "https://goto-eat.weare.osaka-info.jp/gotoeat/gs183284/"
  },
  {
    "name": "haru食堂＋",
    "address": "597-0083\n貝塚市 海塚3-7-2",
    "tel": "072-468-9039",
    "openingHours": "11時～21時",
    "tags": [
      "洋食・西洋料理",
      "泉州"
    ],
    "url": "https://goto-eat.weare.osaka-info.jp/gotoeat/gs183111/"
  },
  {
    "name": "18.44",
    "address": "598-0014\n泉佐野市 葵町2丁目3-6195",
    "tel": "072-461-1844",
    "openingHours": "8:00～18:00",
    "tags": [
      "カフェ・スイーツ",
      "泉州"
    ],
    "url": "https://goto-eat.weare.osaka-info.jp/gotoeat/gs183029/"
  },
  {
    "name": "旬料理あなよし",
    "address": "596-0054\n岸和田市 宮本町6-12",
    "tel": "072-430-1118",
    "openingHours": "11時30分から22時00分入店からラスト",
    "tags": [
      "寿司・魚料理",
      "泉州"
    ],
    "url": "https://goto-eat.weare.osaka-info.jp/gotoeat/gs182920/"
  },
  {
    "name": "ほてい寿司",
    "address": "590-0521\n泉南市 樽井1-1105-6",
    "tel": "072-482-7505",
    "openingHours": "17：00～22：00",
    "tags": [
      "寿司・魚料理",
      "泉州"
    ],
    "url": "https://goto-eat.weare.osaka-info.jp/gotoeat/gs182548/"
  },
  {
    "name": "ミスタードーナツ岸和田カンカンショップ",
    "address": "596-0014\n岸和田市 港緑町3‐1 ベイサイドモールEAST１F",
    "tel": "072-431-0309",
    "openingHours": "9:00～20:00",
    "tags": [
      "カフェ・スイーツ",
      "泉州"
    ],
    "url": "https://goto-eat.weare.osaka-info.jp/gotoeat/gs182186/"
  },
  {
    "name": "手打ち蕎麦仙太郎",
    "address": "597-0083\n貝塚市 海塚3-7-9",
    "tel": "072-477-6559",
    "openingHours": "",
    "tags": [
      "うどん・そば",
      "泉州"
    ],
    "url": "https://goto-eat.weare.osaka-info.jp/gotoeat/gs182154/"
  },
  {
    "name": "あげとん",
    "address": "590-0535\n泉南市 りんくう南浜3-12",
    "tel": "072-479-3770",
    "openingHours": "10：00～21：00",
    "tags": [
      "和食",
      "泉州"
    ],
    "url": "https://goto-eat.weare.osaka-info.jp/gotoeat/gs250752/"
  },
  {
    "name": "ASA インディアン　カフェ＆ダイニング",
    "address": "590-0535\n泉南市 りんくう南浜3-12",
    "tel": "072-479-5266",
    "openingHours": "11：00～22：00",
    "tags": [
      "カレー",
      "泉州"
    ],
    "url": "https://goto-eat.weare.osaka-info.jp/gotoeat/gs241373/"
  },
  {
    "name": "どうとんぼり神座　イオンモールりんくう泉南店",
    "address": "590-0535\n泉南市 りんくう南浜3-12",
    "tel": "072-480-5177",
    "openingHours": "10：00～21：00",
    "tags": [
      "ラーメン・つけ麺",
      "泉州"
    ],
    "url": "https://goto-eat.weare.osaka-info.jp/gotoeat/gs221724/"
  },
  {
    "name": "サンマルクカフェ　イオンモールりんくう泉南店",
    "address": "590-0535\n泉南市 りんくう南浜3-12",
    "tel": "072-480-6255",
    "openingHours": "10：00～21：00",
    "tags": [
      "カフェ・スイーツ",
      "泉州"
    ],
    "url": "https://goto-eat.weare.osaka-info.jp/gotoeat/gs200913/"
  },
  {
    "name": "ミスタードーナツ　イオンモールりんくう泉南店",
    "address": "590-0535\n泉南市 りんくう南浜3-12",
    "tel": "072-480-5177",
    "openingHours": "10：00～21：00",
    "tags": [
      "カフェ・スイーツ",
      "泉州"
    ],
    "url": "https://goto-eat.weare.osaka-info.jp/gotoeat/gs200912/"
  },
  {
    "name": "バケット　イオンモールりんくう泉南店",
    "address": "590-0535\n泉南市 りんくう南浜3-12",
    "tel": "072-480-6195",
    "openingHours": "11：00～22：00",
    "tags": [
      "洋食・西洋料理",
      "泉州"
    ],
    "url": "https://goto-eat.weare.osaka-info.jp/gotoeat/gs182513/"
  },
  {
    "name": "築地銀だこ　イオンモールりんくう泉南店",
    "address": "590-0535\n泉南市 りんくう南浜3-12",
    "tel": "072-480-6277",
    "openingHours": "10：00～21：00",
    "tags": [
      "お好み焼き・たこ焼き",
      "泉州"
    ],
    "url": "https://goto-eat.weare.osaka-info.jp/gotoeat/gs182511/"
  },
  {
    "name": "とんかつ　むら瀬　イオンモールりんくう泉南店",
    "address": "590-0535\n泉南市 りんくう南浜3-12",
    "tel": "072-447-9288",
    "openingHours": "11：00～22：00",
    "tags": [
      "和食",
      "泉州"
    ],
    "url": "https://goto-eat.weare.osaka-info.jp/gotoeat/gs182507/"
  },
  {
    "name": "もりもり寿し　イオンモールりんくう泉南店",
    "address": "590-0535\n泉南市 りんくう南浜3-12",
    "tel": "072-468-7673",
    "openingHours": "11：00～22：00",
    "tags": [
      "寿司・魚料理",
      "泉州"
    ],
    "url": "https://goto-eat.weare.osaka-info.jp/gotoeat/gs181465/"
  },
  {
    "name": "サーティワンアイスクリーム　イオンモールりんくう泉南店",
    "address": "590-0535\n泉南市 りんくう南浜3-12",
    "tel": "072-480-6263",
    "openingHours": "10：00～21：00",
    "tags": [
      "カフェ・スイーツ",
      "泉州"
    ],
    "url": "https://goto-eat.weare.osaka-info.jp/gotoeat/gs181464/"
  },
  {
    "name": "コメダ珈琲店　イオンモールりんくう泉南店",
    "address": "590-0535\n泉南市 りんくう南浜3-12",
    "tel": "072-447-4013",
    "openingHours": "10：00～21：00",
    "tags": [
      "カフェ・スイーツ",
      "泉州"
    ],
    "url": "https://goto-eat.weare.osaka-info.jp/gotoeat/gs181463/"
  },
  {
    "name": "ケンタッキーフライドチキン　イオンモールりんくう泉南店",
    "address": "590-0535\n泉南市 りんくう南浜3-12",
    "tel": "072-480-6275",
    "openingHours": "10：00～21：00",
    "tags": [
      "その他",
      "泉州"
    ],
    "url": "https://goto-eat.weare.osaka-info.jp/gotoeat/gs181461/"
  },
  {
    "name": "土佐わら焼鰹 龍神丸　イオンモールりんくう泉南店",
    "address": "590-0535\n泉南市 りんくう南浜3-12",
    "tel": "072-479-5335",
    "openingHours": "11：00～22：00",
    "tags": [
      "和食",
      "泉州"
    ],
    "url": "https://goto-eat.weare.osaka-info.jp/gotoeat/gs181460/"
  },
  {
    "name": "マクドナルド　イオンモールりんくう泉南店",
    "address": "590-0535\n泉南市 りんくう南浜3-12",
    "tel": "072-484-4660",
    "openingHours": "10：00～21：00",
    "tags": [
      "その他",
      "泉州"
    ],
    "url": "https://goto-eat.weare.osaka-info.jp/gotoeat/gs181459/"
  },
  {
    "name": "鶴橋風月　イオンモールりんくう泉南店",
    "address": "590-0535\n泉南市 りんくう南浜3-12",
    "tel": "072-480-6193",
    "openingHours": "11：00～22：00",
    "tags": [
      "お好み焼き・たこ焼き",
      "泉州"
    ],
    "url": "https://goto-eat.weare.osaka-info.jp/gotoeat/gs181458/"
  },
  {
    "name": "Creperie MELODY　イオンモールりんくう泉南店",
    "address": "590-0535\n泉南市 りんくう南浜3-12",
    "tel": "072-480-6270",
    "openingHours": "10：00～21：00",
    "tags": [
      "カフェ・スイーツ",
      "泉州"
    ],
    "url": "https://goto-eat.weare.osaka-info.jp/gotoeat/gs181457/"
  },
  {
    "name": "越後叶家　イオンモールりんくう泉南店",
    "address": "590-0535\n泉南市 りんくう南浜3-12",
    "tel": "072-480-6176",
    "openingHours": "11：00～22：00",
    "tags": [
      "うどん・そば",
      "泉州"
    ],
    "url": "https://goto-eat.weare.osaka-info.jp/gotoeat/gs181456/"
  },
  {
    "name": "いきなりステーキ　イオンモールりんくう泉南店",
    "address": "590-0535\n泉南市 りんくう南浜3-12",
    "tel": "072-468-6529",
    "openingHours": "10：00～21：00",
    "tags": [
      "洋食・西洋料理",
      "泉州"
    ],
    "url": "https://goto-eat.weare.osaka-info.jp/gotoeat/gs181455/"
  },
  {
    "name": "おひつごはん 四六時中　イオンモールりんくう泉南店",
    "address": "590-0535\n泉南市 りんくう南浜3-12",
    "tel": "072-480-6190",
    "openingHours": "11：00～22：00",
    "tags": [
      "和食",
      "泉州"
    ],
    "url": "https://goto-eat.weare.osaka-info.jp/gotoeat/gs181454/"
  },
  {
    "name": "パステルイタリアーナ　イオンモールりんくう泉南店",
    "address": "590-0535\n泉南市 りんくう南浜3-12",
    "tel": "072-480-6174",
    "openingHours": "11：00～22：00",
    "tags": [
      "イタリアン・フレンチ",
      "泉州"
    ],
    "url": "https://goto-eat.weare.osaka-info.jp/gotoeat/gs181453/"
  },
  {
    "name": "長田本庄軒　イオンモールりんくう泉南店",
    "address": "590-0535\n泉南市 りんくう南浜3-12",
    "tel": "072-480-6268",
    "openingHours": "10：00～21：00",
    "tags": [
      "その他",
      "泉州"
    ],
    "url": "https://goto-eat.weare.osaka-info.jp/gotoeat/gs181452/"
  },
  {
    "name": "東京餃子軒　イオンモールりんくう泉南店",
    "address": "590-0535\n泉南市 りんくう南浜3-12",
    "tel": "072-479-5386",
    "openingHours": "10：00～21：00",
    "tags": [
      "中華料理",
      "泉州"
    ],
    "url": "https://goto-eat.weare.osaka-info.jp/gotoeat/gs181450/"
  },
  {
    "name": "炙り牛たん 万　イオンモールりんくう泉南店",
    "address": "590-0535\n泉南市 りんくう南浜3-12",
    "tel": "072-479-8888",
    "openingHours": "11：00～22：00",
    "tags": [
      "和食",
      "泉州"
    ],
    "url": "https://goto-eat.weare.osaka-info.jp/gotoeat/gs181449/"
  },
  {
    "name": "串家物語　イオンモールりんくう泉南店",
    "address": "590-0535\n泉南市 りんくう南浜3-12",
    "tel": "072-480-6192",
    "openingHours": "11：00～22：00",
    "tags": [
      "その他",
      "泉州"
    ],
    "url": "https://goto-eat.weare.osaka-info.jp/gotoeat/gs181448/"
  },
  {
    "name": "かっぱ寿司　貝塚店",
    "address": "597-0021\n貝塚市 小瀬１丁目27-1",
    "tel": "072-430-6736",
    "openingHours": "11：00～22：00",
    "tags": [
      "寿司・魚料理",
      "泉州"
    ],
    "url": "https://goto-eat.weare.osaka-info.jp/gotoeat/gs181375/"
  },
  {
    "name": "焼肉屋さかい　大阪岸和田今木店",
    "address": "592-8342\n岸和田市 今木町10-1",
    "tel": "072-440-4329",
    "openingHours": "17時00分～23時00分",
    "tags": [
      "焼肉・ホルモン",
      "泉州"
    ],
    "url": "https://goto-eat.weare.osaka-info.jp/gotoeat/gs181254/"
  },
  {
    "name": "くつろぎダイニング とりあえず吾平 大阪貝塚店",
    "address": "542-0076\n貝塚市 麻生中835-1",
    "tel": "0724-27-3350",
    "openingHours": "17時00分～1時00分",
    "tags": [
      "居酒屋",
      "泉州"
    ],
    "url": "https://goto-eat.weare.osaka-info.jp/gotoeat/gs181252/"
  },
  {
    "name": "くつろぎダイニング とりあえず吾平　大阪岸和田店",
    "address": "573-0164\n岸和田市 西之内町4-24",
    "tel": "072-436-7740",
    "openingHours": "17時00分～1時00分",
    "tags": [
      "居酒屋",
      "泉州"
    ],
    "url": "https://goto-eat.weare.osaka-info.jp/gotoeat/gs181250/"
  },
  {
    "name": "大阪王将安松店",
    "address": "598-0033\n泉佐野市 南中安松660-1",
    "tel": "072-493-3598",
    "openingHours": "",
    "tags": [
      "中華料理",
      "泉州"
    ],
    "url": "https://goto-eat.weare.osaka-info.jp/gotoeat/gs180635/"
  },
  {
    "name": "ココハウス",
    "address": "590-0406\n泉南郡熊取町 大久保東1-1-18 シンセリティーナカニシビル",
    "tel": "072-453-7137",
    "openingHours": "11:00～23:00",
    "tags": [
      "洋食・西洋料理",
      "泉州"
    ],
    "url": "https://goto-eat.weare.osaka-info.jp/gotoeat/gs180554/"
  },
  {
    "name": "つろぎ",
    "address": "590-0405\n泉南郡熊取町 大久保南4-1351-1",
    "tel": "072-451-3733",
    "openingHours": "11：00-22：00",
    "tags": [
      "和食",
      "泉州"
    ],
    "url": "https://goto-eat.weare.osaka-info.jp/gotoeat/gs180530/"
  },
  {
    "name": "お好み焼・鉄板焼　きん太　岸和田店",
    "address": "596-0826\n岸和田市 作才町1-3-6",
    "tel": "072-447-8200",
    "openingHours": "",
    "tags": [
      "お好み焼き・たこ焼き",
      "泉州"
    ],
    "url": "https://goto-eat.weare.osaka-info.jp/gotoeat/gs180478/"
  },
  {
    "name": "焼肉ひろき",
    "address": "598-0062\n泉佐野市 下瓦屋345-2",
    "tel": "0724-86-0029",
    "openingHours": "5時から10時",
    "tags": [
      "焼肉・ホルモン",
      "泉州"
    ],
    "url": "https://goto-eat.weare.osaka-info.jp/gotoeat/gs180400/"
  },
  {
    "name": "石才飯店",
    "address": "597-0082\n貝塚市 石才656-9",
    "tel": "072-432-7132",
    "openingHours": "昼11時～14時　夜17時～22時",
    "tags": [
      "中華料理",
      "泉州"
    ],
    "url": "https://goto-eat.weare.osaka-info.jp/gotoeat/gs180399/"
  },
  {
    "name": "七輪焼鳥のぞみ",
    "address": "597-0001\n貝塚市 近木町7-9 大野ビル",
    "tel": "072-436-2929",
    "openingHours": "18:00～22:30",
    "tags": [
      "居酒屋",
      "泉州"
    ],
    "url": "https://goto-eat.weare.osaka-info.jp/gotoeat/gs180392/"
  },
  {
    "name": "大黒屋",
    "address": "597-0073\n貝塚市 脇浜1丁目1-11 リノン脇浜102",
    "tel": "072-432-1677",
    "openingHours": "17時　から　24時",
    "tags": [
      "居酒屋",
      "泉州"
    ],
    "url": "https://goto-eat.weare.osaka-info.jp/gotoeat/gs180209/"
  },
  {
    "name": "どうとんぼり神座　関西国際空港店",
    "address": "549-0011\n泉南郡田尻町 泉州空港中一番地 関西国際空港旅客ターミナルビル3F",
    "tel": "072-468-6838",
    "openingHours": "7:00-20:00(L.O.19:30)",
    "tags": [
      "ラーメン・つけ麺",
      "泉州"
    ],
    "url": "https://goto-eat.weare.osaka-info.jp/gotoeat/gs179695/"
  },
  {
    "name": "THE　KORIAN　STYLE　OBON　PEP　りんくう店",
    "address": "598-0047\n泉佐野市 りんくう往来南３番地 りんくうプレジャータウンシークル２F",
    "tel": "072-447-7338",
    "openingHours": "11:00～22：00",
    "tags": [
      "アジア・エスニック料理",
      "泉州"
    ],
    "url": "https://goto-eat.weare.osaka-info.jp/gotoeat/gs179648/"
  },
  {
    "name": "泉州おかんの味　お食事処　ごんたくれ",
    "address": "590-0521\n泉南市 樽井1-2-13 泉南ビジネスセンタービル1階",
    "tel": "072-457-4809",
    "openingHours": "11:00～14:00 18:00～22:00",
    "tags": [
      "居酒屋",
      "泉州"
    ],
    "url": "https://goto-eat.weare.osaka-info.jp/gotoeat/gs179610/"
  },
  {
    "name": "炭火もも焼きとり彦",
    "address": "596-0054\n岸和田市 宮本町２８－１",
    "tel": "072-436-4366",
    "openingHours": "１８時～２４時",
    "tags": [
      "居酒屋",
      "泉州"
    ],
    "url": "https://goto-eat.weare.osaka-info.jp/gotoeat/gs179596/"
  },
  {
    "name": "フルールクレープス",
    "address": "597-0042\n貝塚市 名越903",
    "tel": "080-4647-2662",
    "openingHours": "12時～19時",
    "tags": [
      "カフェ・スイーツ",
      "泉州"
    ],
    "url": "https://goto-eat.weare.osaka-info.jp/gotoeat/gs179593/"
  },
  {
    "name": "大起水産回転寿司りんくうシークル店",
    "address": "598-0047\n泉佐野市 りんくう往来南３ シークル１Ｆ",
    "tel": "072-469-1520",
    "openingHours": "",
    "tags": [
      "寿司・魚料理",
      "泉州"
    ],
    "url": "https://goto-eat.weare.osaka-info.jp/gotoeat/gs177434/"
  },
  {
    "name": "大起水産回転寿司岸和田店",
    "address": "596-0821\n岸和田市 小松里町2418",
    "tel": "072-448-5011",
    "openingHours": "",
    "tags": [
      "寿司・魚料理",
      "泉州"
    ],
    "url": "https://goto-eat.weare.osaka-info.jp/gotoeat/gs177416/"
  },
  {
    "name": "串カツえべっさん 熊取店",
    "address": "590-0403\n泉南郡熊取町 大久保中1丁目1-25",
    "tel": "072-453-7809",
    "openingHours": "18：00～26：00",
    "tags": [
      "居酒屋",
      "泉州"
    ],
    "url": "https://goto-eat.weare.osaka-info.jp/gotoeat/gs177281/"
  },
  {
    "name": "串カツえべっさん りんくうタウン駅中店",
    "address": "598-0048\n泉佐野市 りんくう往来北1番 りんくうパピリオ210号",
    "tel": "072-469-1527",
    "openingHours": "17：00～12：00",
    "tags": [
      "居酒屋",
      "泉州"
    ],
    "url": "https://goto-eat.weare.osaka-info.jp/gotoeat/gs177280/"
  },
  {
    "name": "串カツえべっさん 泉佐野駅前店",
    "address": "598-0007\n泉佐野市 上町3丁目7-11 エースビル101",
    "tel": "072-461-2373",
    "openingHours": "17：00～12：00",
    "tags": [
      "居酒屋",
      "泉州"
    ],
    "url": "https://goto-eat.weare.osaka-info.jp/gotoeat/gs177279/"
  },
  {
    "name": "日根野食堂",
    "address": "598-0021\n泉佐野市 日根野7130",
    "tel": "072-450-3737",
    "openingHours": "11:00～22:00(LO 21:30)",
    "tags": [
      "和食",
      "泉州"
    ],
    "url": "https://goto-eat.weare.osaka-info.jp/gotoeat/gs177254/"
  },
  {
    "name": "アヤコ食堂",
    "address": "596-0055\n岸和田市 五軒屋町16-11",
    "tel": "072-433-1188",
    "openingHours": "11:30～15:00/17:00～22:00(LO.21:30)",
    "tags": [
      "和食",
      "泉州"
    ],
    "url": "https://goto-eat.weare.osaka-info.jp/gotoeat/gs177206/"
  },
  {
    "name": "貝塚食堂",
    "address": "597-0033\n貝塚市 半田1-9-22",
    "tel": "072-493-1655",
    "openingHours": "11:00～22:00(LO.21:30)",
    "tags": [
      "和食",
      "泉州"
    ],
    "url": "https://goto-eat.weare.osaka-info.jp/gotoeat/gs177167/"
  },
  {
    "name": "岸和田内畑食堂",
    "address": "596-1015\n岸和田市 内畑町269-6",
    "tel": "072-489-2882",
    "openingHours": "11:00～21:30(LO.21:00)",
    "tags": [
      "和食",
      "泉州"
    ],
    "url": "https://goto-eat.weare.osaka-info.jp/gotoeat/gs177158/"
  },
  {
    "name": "岸和田西之内食堂",
    "address": "596-0044\n岸和田市 西之内町10-30",
    "tel": "072-436-8005",
    "openingHours": "11:00～22:00(LO.21:30)",
    "tags": [
      "和食",
      "泉州"
    ],
    "url": "https://goto-eat.weare.osaka-info.jp/gotoeat/gs177150/"
  },
  {
    "name": "さち福や　関西国際空港",
    "address": "549-0001\n泉佐野市 泉州空港北1番地 3Fレストラン・ショッピングエリア",
    "tel": "072-456-6603",
    "openingHours": "07:00～22:00 (LO.21:15)",
    "tags": [
      "和食",
      "泉州"
    ],
    "url": "https://goto-eat.weare.osaka-info.jp/gotoeat/gs177114/"
  },
  {
    "name": "羽倉崎食堂",
    "address": "598-0046\n泉佐野市 羽倉崎1-5-21",
    "tel": "0724-58-1881",
    "openingHours": "11:00～22:00(LO.21:30)",
    "tags": [
      "和食",
      "泉州"
    ],
    "url": "https://goto-eat.weare.osaka-info.jp/gotoeat/gs177097/"
  },
  {
    "name": "岸和田食堂",
    "address": "596-0004\n岸和田市 荒木町1-1008",
    "tel": "0724-48-6366",
    "openingHours": "11:00～24:00(LO.23:30)",
    "tags": [
      "和食",
      "泉州"
    ],
    "url": "https://goto-eat.weare.osaka-info.jp/gotoeat/gs177094/"
  },
  {
    "name": "串家物語　イオンモールりんくう泉南",
    "address": "590-0535\n泉南市 りんくう南浜3番1内 イオンモールりんくう泉南 1F",
    "tel": "072-480-6192",
    "openingHours": "11:00～22:00(ランチラスト入店15:30、ディナーLO.21:30)",
    "tags": [
      "和食",
      "泉州"
    ],
    "url": "https://goto-eat.weare.osaka-info.jp/gotoeat/gs177062/"
  },
  {
    "name": "フレンチ工房ダニエル",
    "address": "598-0021\n泉佐野市 日根野4219-2 神藤レジデンス1階",
    "tel": "072-464-1180",
    "openingHours": "11時30～14時30 18時～21時",
    "tags": [
      "イタリアン・フレンチ",
      "泉州"
    ],
    "url": "https://goto-eat.weare.osaka-info.jp/gotoeat/gs176896/"
  },
  {
    "name": "りんくう茶屋",
    "address": "598-0047\n泉佐野市 りんくう往来南3番地 　りんくうプレジャータウンシークル2階りんくうの湯内",
    "tel": "072-469-4126",
    "openingHours": "11：00～22：00（ＬＯ：21：30）",
    "tags": [
      "その他",
      "泉州"
    ],
    "url": "https://goto-eat.weare.osaka-info.jp/gotoeat/gs176566/"
  },
  {
    "name": "韓国料理　飛鳥",
    "address": "598-0007\n泉佐野市 上町３丁目１１ー５ 植林ビル１F",
    "tel": "072-469-1355",
    "openingHours": "17:00～24:00",
    "tags": [
      "アジア・エスニック料理",
      "泉州"
    ],
    "url": "https://goto-eat.weare.osaka-info.jp/gotoeat/gs176466/"
  },
  {
    "name": "居酒屋レストラン西村",
    "address": "599-0202\n阪南市 下出781-14",
    "tel": "072-471-1378",
    "openingHours": "",
    "tags": [
      "和食",
      "泉州"
    ],
    "url": "https://goto-eat.weare.osaka-info.jp/gotoeat/gs176383/"
  },
  {
    "name": "星乃珈琲店岸和田店",
    "address": "596-0823\n岸和田市 下松町1丁目4-10",
    "tel": "072-437-6303",
    "openingHours": "09：00～21：00",
    "tags": [
      "カフェ・スイーツ",
      "泉州"
    ],
    "url": "https://goto-eat.weare.osaka-info.jp/gotoeat/gs176188/"
  },
  {
    "name": "コーヒーハウス・波",
    "address": "596-0054\n岸和田市 宮本町２７－１ 泉州ビル　地下１階",
    "tel": "072-439-1008",
    "openingHours": "",
    "tags": [
      "カフェ・スイーツ",
      "泉州"
    ],
    "url": "https://goto-eat.weare.osaka-info.jp/gotoeat/gs175647/"
  },
  {
    "name": "カレーハウスCoCo壱番屋　泉南男里店",
    "address": "590-0526\n泉南市 男里五丁目1-3",
    "tel": "072-482-1600",
    "openingHours": "",
    "tags": [
      "カレー",
      "泉州"
    ],
    "url": "https://goto-eat.weare.osaka-info.jp/gotoeat/gs175540/"
  },
  {
    "name": "カレーハウスCoCo壱番屋　貝塚小瀬店",
    "address": "597-0021\n貝塚市 小瀬一丁目30番13号",
    "tel": "072-436-8551",
    "openingHours": "",
    "tags": [
      "カレー",
      "泉州"
    ],
    "url": "https://goto-eat.weare.osaka-info.jp/gotoeat/gs175461/"
  },
  {
    "name": "カレーハウスCoCo壱番屋　岸和田並松店",
    "address": "596-0052\n岸和田市 並松町29-16",
    "tel": "072-436-8233",
    "openingHours": "",
    "tags": [
      "カレー",
      "泉州"
    ],
    "url": "https://goto-eat.weare.osaka-info.jp/gotoeat/gs175441/"
  },
  {
    "name": "ソラテリア　関西国際空港",
    "address": "549-0011\n泉南郡田尻町 泉州空港中13番地及び11-1番地",
    "tel": "072-456-8710",
    "openingHours": "5：30～20：10（L.O　19：40）営業時間変更の可能性ございます。",
    "tags": [
      "和食",
      "泉州"
    ],
    "url": "https://goto-eat.weare.osaka-info.jp/gotoeat/gs175331/"
  },
  {
    "name": "マルゲリータキッチン 関西国際空港",
    "address": "549-0011\n泉南郡田尻町 泉州空港中一番地　 旅客第一ターミナルビル３階",
    "tel": "072-468-9323",
    "openingHours": "11：00-15：30（15：00L.O.)、17：00-20：00（19：30L.O.)",
    "tags": [
      "洋食・西洋料理",
      "泉州"
    ],
    "url": "https://goto-eat.weare.osaka-info.jp/gotoeat/gs175265/"
  },
  {
    "name": "黒長兵衛 イオンモールりんくう泉南",
    "address": "590-0535\n泉南市 りんくう南浜３－１　 イオンモールりんくう泉南１Ｆ",
    "tel": "072-480-6173",
    "openingHours": "10:00 ー 22:00（21:00L.O.） 11:00まではドリンクのみ",
    "tags": [
      "和食",
      "泉州"
    ],
    "url": "https://goto-eat.weare.osaka-info.jp/gotoeat/gs175263/"
  },
  {
    "name": "まめ寅 りんくうプレミアムアウトレット",
    "address": "598-0047\n泉佐野市 りんくう往来南３－２８ プレミアムアウトレット２Ｆ",
    "tel": "072-463-7513",
    "openingHours": "11:00 ー 21:00（20:30L.O.）",
    "tags": [
      "和食",
      "泉州"
    ],
    "url": "https://goto-eat.weare.osaka-info.jp/gotoeat/gs175261/"
  },
  {
    "name": "雲龍一包軒 イオンモールりんくう泉南",
    "address": "590-0535\n泉南市 りんくう南浜３－１２ イオンモールりんくう泉南1F",
    "tel": "072-480-6265",
    "openingHours": "10:00 ー 22:00（21:00L.O.） 11:00まではドリンクのみ",
    "tags": [
      "中華料理",
      "泉州"
    ],
    "url": "https://goto-eat.weare.osaka-info.jp/gotoeat/gs175258/"
  },
  {
    "name": "紅虎餃子房 関西国際空港",
    "address": "549-0011\n泉南郡田尻町 泉州空港中一番地 旅客第一ターミナルビル３階",
    "tel": "072-493-3447",
    "openingHours": "11：00-15：30（15：00L.O.)、17：00-20：00（19：30L.O.)",
    "tags": [
      "中華料理",
      "泉州"
    ],
    "url": "https://goto-eat.weare.osaka-info.jp/gotoeat/gs175254/"
  },
  {
    "name": "蒼龍唐玉堂 りんくうプレミアムアウトレット",
    "address": "598-0047\n泉佐野市 りんくう往来南３－２８ プレミアムアウトレット２Ｆ",
    "tel": "0724-64-6011",
    "openingHours": "11:00 ー 21:00（20:30L.O.）",
    "tags": [
      "中華料理",
      "泉州"
    ],
    "url": "https://goto-eat.weare.osaka-info.jp/gotoeat/gs175253/"
  },
  {
    "name": "カレーハウスCoCo壱番屋　岸和田インター店",
    "address": "596-0808\n岸和田市 三田町236-1",
    "tel": "072-448-7171",
    "openingHours": "",
    "tags": [
      "カレー",
      "泉州"
    ],
    "url": "https://goto-eat.weare.osaka-info.jp/gotoeat/gs175230/"
  },
  {
    "name": "俄",
    "address": "598-0011\n泉佐野市 高松北 稲垣ビル1F",
    "tel": "072-461-2479",
    "openingHours": "17:00～23:30",
    "tags": [
      "居酒屋",
      "泉州"
    ],
    "url": "https://goto-eat.weare.osaka-info.jp/gotoeat/gs175157/"
  },
  {
    "name": "紀一",
    "address": "597-0023\n貝塚市 福田95-6",
    "tel": "072-431-8118",
    "openingHours": "",
    "tags": [
      "ラーメン・つけ麺",
      "泉州"
    ],
    "url": "https://goto-eat.weare.osaka-info.jp/gotoeat/gs175101/"
  },
  {
    "name": "ふぐ政　泉佐野店",
    "address": "598-0062\n泉佐野市 下瓦屋2-1-34 宮田ビル1F",
    "tel": "072-464-8350",
    "openingHours": "平日17時～23時　土日祝11時30分～15時　17時～23時",
    "tags": [
      "寿司・魚料理",
      "泉州"
    ],
    "url": "https://goto-eat.weare.osaka-info.jp/gotoeat/gs175062/"
  },
  {
    "name": "らーめん　ごん神",
    "address": "598-0071\n泉佐野市 鶴原311-7",
    "tel": "072-458-2700",
    "openingHours": "11時～14時、17時～21時",
    "tags": [
      "ラーメン・つけ麺",
      "泉州"
    ],
    "url": "https://goto-eat.weare.osaka-info.jp/gotoeat/gs175011/"
  },
  {
    "name": "中国亭",
    "address": "590-0402\n泉南郡熊取町 大久保北1-1-20",
    "tel": "072-452-3413",
    "openingHours": "11：00～14：30 17：00～21：30",
    "tags": [
      "中華料理",
      "泉州"
    ],
    "url": "https://goto-eat.weare.osaka-info.jp/gotoeat/gs174750/"
  },
  {
    "name": "回転寿司　北海素材　岸和田店",
    "address": "596-0823\n岸和田市 下松町5037",
    "tel": "072-430-6009",
    "openingHours": "１１時３０分～２１時３０分",
    "tags": [
      "寿司・魚料理",
      "泉州"
    ],
    "url": "https://goto-eat.weare.osaka-info.jp/gotoeat/gs174725/"
  },
  {
    "name": "大阪ふくちぁんラーメン　貝塚店",
    "address": "597-0023\n貝塚市 福田112-1",
    "tel": "072-438-8887",
    "openingHours": "【平日】１１：００　～　翌２：００【日・祝】１１：００　～　２４：００",
    "tags": [
      "ラーメン・つけ麺",
      "泉州"
    ],
    "url": "https://goto-eat.weare.osaka-info.jp/gotoeat/gs174504/"
  },
  {
    "name": "大阪ふくちぁんラーメン　岸和田店",
    "address": "596-0044\n岸和田市 西之内町65-30",
    "tel": "072-437-5010",
    "openingHours": "１１：００　～　翌４：００",
    "tags": [
      "ラーメン・つけ麺",
      "泉州"
    ],
    "url": "https://goto-eat.weare.osaka-info.jp/gotoeat/gs174502/"
  },
  {
    "name": "タリーズコーヒー　りんくうシークル店",
    "address": "598-0047\n泉佐野市 りんくう往来南3 りんくうプレジャータウンシークル",
    "tel": "072-458-2233",
    "openingHours": "9:00～22:00",
    "tags": [
      "カフェ・スイーツ",
      "泉州"
    ],
    "url": "https://goto-eat.weare.osaka-info.jp/gotoeat/gs174409/"
  },
  {
    "name": "ロッテリア　岸和田カンカン店",
    "address": "596-0014\n岸和田市 港緑町２番１号",
    "tel": "072-436-9470",
    "openingHours": "0900-2000",
    "tags": [
      "その他",
      "泉州"
    ],
    "url": "https://goto-eat.weare.osaka-info.jp/gotoeat/gs174388/"
  },
  {
    "name": "BLUESTAR CAFE",
    "address": "596-0808\n岸和田市 三田町619-1",
    "tel": "072-445-5771",
    "openingHours": "9時～18時",
    "tags": [
      "カフェ・スイーツ",
      "泉州"
    ],
    "url": "https://goto-eat.weare.osaka-info.jp/gotoeat/gs174336/"
  },
  {
    "name": "山吉",
    "address": "599-0204\n阪南市 鳥取441-2",
    "tel": "072-472-0324",
    "openingHours": "11:00～14:00/16:00～21:00",
    "tags": [
      "寿司・魚料理",
      "泉州"
    ],
    "url": "https://goto-eat.weare.osaka-info.jp/gotoeat/gs174021/"
  },
  {
    "name": "ワンカルビ貝塚店",
    "address": "597-0041\n貝塚市 清児604",
    "tel": "072-446-8829",
    "openingHours": "17:00～23:00 （土）12:00～14:00 16:00～24:00",
    "tags": [
      "焼肉・ホルモン",
      "泉州"
    ],
    "url": "https://goto-eat.weare.osaka-info.jp/gotoeat/gs173591/"
  },
  {
    "name": "ワンカルビ熊取店",
    "address": "590-0403\n泉南郡熊取町 大久保中1-7-26",
    "tel": "072-452-2911",
    "openingHours": "17:00～23:00 （土）12:00～14:00 16:00～24:00",
    "tags": [
      "焼肉・ホルモン",
      "泉州"
    ],
    "url": "https://goto-eat.weare.osaka-info.jp/gotoeat/gs173587/"
  },
  {
    "name": "ワンカルビ岸和田店",
    "address": "596-0004\n岸和田市 荒木町1-33-7",
    "tel": "072-441-8629",
    "openingHours": "17:00～23:00 （土）12:00～14:00 16:00～24:00",
    "tags": [
      "焼肉・ホルモン",
      "泉州"
    ],
    "url": "https://goto-eat.weare.osaka-info.jp/gotoeat/gs173574/"
  },
  {
    "name": "ワンカルビりんくうタウン店",
    "address": "598-0048\n泉佐野市 りんくう往来北1-10",
    "tel": "072-463-4129",
    "openingHours": "17:00～23:00 （土）12:00～14:00 16:00～24:00",
    "tags": [
      "焼肉・ホルモン",
      "泉州"
    ],
    "url": "https://goto-eat.weare.osaka-info.jp/gotoeat/gs173568/"
  },
  {
    "name": "きんのぶた貝塚堤店",
    "address": "597-0054\n貝塚市 堤188-1",
    "tel": "072-433-4129",
    "openingHours": "17:00～23:00 （土日祝)　12:00～24:00",
    "tags": [
      "鍋",
      "泉州"
    ],
    "url": "https://goto-eat.weare.osaka-info.jp/gotoeat/gs173556/"
  },
  {
    "name": "呑み処　KOCON",
    "address": "597-0001\n貝塚市 近木町6-6-1C グランツ近木",
    "tel": "080-2412-1673",
    "openingHours": "19時から24時まで",
    "tags": [
      "居酒屋",
      "泉州"
    ],
    "url": "https://goto-eat.weare.osaka-info.jp/gotoeat/gs173331/"
  },
  {
    "name": "（有）大規鮨し",
    "address": "599-0211\n阪南市 鳥取中11",
    "tel": "072-471-6311",
    "openingHours": "",
    "tags": [
      "寿司・魚料理",
      "泉州"
    ],
    "url": "https://goto-eat.weare.osaka-info.jp/gotoeat/gs173234/"
  },
  {
    "name": "韓のおしり岸和田店",
    "address": "596-0804\n岸和田市 今木町9-1",
    "tel": "072-445-4599",
    "openingHours": "（月～金）17:00～23:00（LO.22:00)　　（土日祝）11:00～14:00(LO.1",
    "tags": [
      "アジア・エスニック料理",
      "泉州"
    ],
    "url": "https://goto-eat.weare.osaka-info.jp/gotoeat/gs172838/"
  },
  {
    "name": "サーティワンアイスクリーム　岸和田ＲＳ店",
    "address": "596-0044\n岸和田市 西之内町63-20",
    "tel": "0724-44-8831",
    "openingHours": "平日12:00-22:00 (土日)11:00-22:00",
    "tags": [
      "カフェ・スイーツ",
      "泉州"
    ],
    "url": "https://goto-eat.weare.osaka-info.jp/gotoeat/gs172752/"
  },
  {
    "name": "サーティワンアイスクリーム　りんくうプレミアム・アウトレット店",
    "address": "598-8508\n泉佐野市 りんくう往来南4-17-6900 シーサイドエリア平面駐車場前",
    "tel": "072-468-8631",
    "openingHours": "10:00～20:00",
    "tags": [
      "カフェ・スイーツ",
      "泉州"
    ],
    "url": "https://goto-eat.weare.osaka-info.jp/gotoeat/gs172750/"
  },
  {
    "name": "La Ohana イオンモールりんくう泉南店",
    "address": "590-0535\n泉南市 りんくう南浜3-12",
    "tel": "072-480-6750",
    "openingHours": "",
    "tags": [
      "その他",
      "泉州"
    ],
    "url": "https://goto-eat.weare.osaka-info.jp/gotoeat/gs308540/"
  },
  {
    "name": "しゃぶ葉阪南下出",
    "address": "599-0202\n阪南市 下出４３６－１",
    "tel": "072-470-1125",
    "openingHours": "11:00～23:30",
    "tags": [
      "鍋",
      "泉州"
    ],
    "url": "https://goto-eat.weare.osaka-info.jp/gotoeat/gs172619/"
  },
  {
    "name": "ガスト泉南尾崎",
    "address": "599-0202\n阪南市 下出３９０－１",
    "tel": "072-470-2022",
    "openingHours": "8:00～23:30",
    "tags": [
      "洋食・西洋料理",
      "泉州"
    ],
    "url": "https://goto-eat.weare.osaka-info.jp/gotoeat/gs172618/"
  },
  {
    "name": "ガスト泉佐野貝田",
    "address": "598-0071\n泉佐野市 鶴原１２１０番地－４",
    "tel": "072-460-2445",
    "openingHours": "8:00～23:30",
    "tags": [
      "洋食・西洋料理",
      "泉州"
    ],
    "url": "https://goto-eat.weare.osaka-info.jp/gotoeat/gs172586/"
  },
  {
    "name": "しゃぶ葉岸和田南",
    "address": "596-0067\n岸和田市 南町１８－１２",
    "tel": "072-430-2077",
    "openingHours": "11:00～23:30",
    "tags": [
      "鍋",
      "泉州"
    ],
    "url": "https://goto-eat.weare.osaka-info.jp/gotoeat/gs172549/"
  },
  {
    "name": "ステーキガスト岸和田",
    "address": "596-0803\n岸和田市 東大路町１１－６",
    "tel": "072-448-7113",
    "openingHours": "11:00～23:30",
    "tags": [
      "洋食・西洋料理",
      "泉州"
    ],
    "url": "https://goto-eat.weare.osaka-info.jp/gotoeat/gs172548/"
  },
  {
    "name": "ガスト岸和田東",
    "address": "596-0801\n岸和田市 箕土路町１丁目９－２２",
    "tel": "072-440-2072",
    "openingHours": "8:00～23:30",
    "tags": [
      "洋食・西洋料理",
      "泉州"
    ],
    "url": "https://goto-eat.weare.osaka-info.jp/gotoeat/gs172547/"
  },
  {
    "name": "夢一喜貝塚店",
    "address": "597-0071\n貝塚市 加神1-7-8",
    "tel": "072-439-5838",
    "openingHours": "",
    "tags": [
      "その他",
      "泉州"
    ],
    "url": "https://goto-eat.weare.osaka-info.jp/gotoeat/gs172384/"
  },
  {
    "name": "焼肉特急　岸和田駅",
    "address": "596-0003\n岸和田市 中井町1-19-5",
    "tel": "072-443-1529",
    "openingHours": "平日　11：00～15：00　　　　　　　　　　　　　　　17：00～22：30",
    "tags": [
      "焼肉・ホルモン",
      "泉州"
    ],
    "url": "https://goto-eat.weare.osaka-info.jp/gotoeat/gs172363/"
  },
  {
    "name": "とんかつかつ喜　岸和田小松里店",
    "address": "596-0821\n岸和田市 小松里町2521",
    "tel": "072-447-4170",
    "openingHours": "",
    "tags": [
      "洋食・西洋料理",
      "泉州"
    ],
    "url": "https://goto-eat.weare.osaka-info.jp/gotoeat/gs171589/"
  },
  {
    "name": "とんかつかつ喜　岸和田店",
    "address": "596-0014\n岸和田市 港緑町3-1 岸和田カンカンベイサイドモールWEST3階",
    "tel": "072-447-8617",
    "openingHours": "",
    "tags": [
      "洋食・西洋料理",
      "泉州"
    ],
    "url": "https://goto-eat.weare.osaka-info.jp/gotoeat/gs171587/"
  },
  {
    "name": "しゃぶかつかつ喜　シークル店",
    "address": "598-0047\n泉佐野市 りんくう往来南3番地 りんくうプレジャータウンシークル2階",
    "tel": "072-458-2828",
    "openingHours": "",
    "tags": [
      "洋食・西洋料理",
      "泉州"
    ],
    "url": "https://goto-eat.weare.osaka-info.jp/gotoeat/gs171567/"
  },
  {
    "name": "河内らーめん喜神　シークル店",
    "address": "598-0047\n泉佐野市 りんくう往来南3番地 りんくうプレジャータウンシークル2階",
    "tel": "072-458-2829",
    "openingHours": "",
    "tags": [
      "ラーメン・つけ麺",
      "泉州"
    ],
    "url": "https://goto-eat.weare.osaka-info.jp/gotoeat/gs171566/"
  },
  {
    "name": "天丼と麺処きらく　りんくう店",
    "address": "590-0535\n泉南市 りんくう南浜3-1 イオンモールりんくう泉南2階",
    "tel": "072-480-6276",
    "openingHours": "",
    "tags": [
      "うどん・そば",
      "泉州"
    ],
    "url": "https://goto-eat.weare.osaka-info.jp/gotoeat/gs171561/"
  },
  {
    "name": "河内らーめん喜神　岸和田店",
    "address": "596-0014\n岸和田市 港緑町2-1 岸和田カンカンベイサイドモールEAST1階",
    "tel": "072-438-6100",
    "openingHours": "",
    "tags": [
      "ラーメン・つけ麺",
      "泉州"
    ],
    "url": "https://goto-eat.weare.osaka-info.jp/gotoeat/gs171560/"
  },
  {
    "name": "とんかつかつ喜　泉佐野店",
    "address": "598-0062\n泉佐野市 下瓦屋2-2-77 いこらもーる泉佐野1階",
    "tel": "072-458-1801",
    "openingHours": "",
    "tags": [
      "洋食・西洋料理",
      "泉州"
    ],
    "url": "https://goto-eat.weare.osaka-info.jp/gotoeat/gs171554/"
  },
  {
    "name": "とんかつかつ喜　泉南新家店",
    "address": "590-0503\n泉南市 新家3174-1",
    "tel": "072-480-2667",
    "openingHours": "",
    "tags": [
      "洋食・西洋料理",
      "泉州"
    ],
    "url": "https://goto-eat.weare.osaka-info.jp/gotoeat/gs171551/"
  },
  {
    "name": "大阪釆なりうどんきらく　岸和田店",
    "address": "596-0014\n岸和田市 港緑町2-1 岸和田カンカンベイサイドモールEAST1階",
    "tel": "072-437-2206",
    "openingHours": "",
    "tags": [
      "うどん・そば",
      "泉州"
    ],
    "url": "https://goto-eat.weare.osaka-info.jp/gotoeat/gs171550/"
  },
  {
    "name": "串かつ一品いなば",
    "address": "590-0450\n泉南郡熊取町 大宮3丁目707-1 グリーンハイツ1階",
    "tel": "072-453-7204",
    "openingHours": "",
    "tags": [
      "その他",
      "泉州"
    ],
    "url": "https://goto-eat.weare.osaka-info.jp/gotoeat/gs171519/"
  },
  {
    "name": "キッチンガーデン MARU",
    "address": "598-8522\n泉佐野市 りんくう往来北１－７",
    "tel": "072-461-2222",
    "openingHours": "",
    "tags": [
      "ホテルレストラン",
      "泉州"
    ],
    "url": "https://goto-eat.weare.osaka-info.jp/gotoeat/gs311287/"
  },
  {
    "name": "本家さぬきや　熊取店",
    "address": "590-0402\n泉南郡熊取町 大久保北3-341-1",
    "tel": "072-452-8910",
    "openingHours": "日～木　11:00～22:00 金・土・祝前日　11:00～23:00",
    "tags": [
      "和食",
      "泉州"
    ],
    "url": "https://goto-eat.weare.osaka-info.jp/gotoeat/gs171409/"
  },
  {
    "name": "静の花",
    "address": "597-0073\n貝塚市 脇浜1-16-9",
    "tel": "050-3466-1231",
    "openingHours": "ランチ11:30～15:00（LO14:00） ディナー 17:00～22:00（LO21:00）",
    "tags": [
      "和食",
      "泉州"
    ],
    "url": "https://goto-eat.weare.osaka-info.jp/gotoeat/gs171405/"
  },
  {
    "name": "浜力",
    "address": "596-0823\n岸和田市 下松町5054",
    "tel": "072-423-4477",
    "openingHours": "11:30～22:00",
    "tags": [
      "寿司・魚料理",
      "泉州"
    ],
    "url": "https://goto-eat.weare.osaka-info.jp/gotoeat/gs171395/"
  },
  {
    "name": "河童ラーメン 本舗　まんぷくMAX",
    "address": "597-0031\n貝塚市 久保152-2",
    "tel": "072-493-3281",
    "openingHours": "11：00-24：00",
    "tags": [
      "ラーメン・つけ麺",
      "泉州"
    ],
    "url": "https://goto-eat.weare.osaka-info.jp/gotoeat/gs171278/"
  },
  {
    "name": "河童ラーメン　本舗　泉佐野店",
    "address": "598-0006\n泉佐野市 市場西3-1-7",
    "tel": "072-462-2299",
    "openingHours": "11：00-27：00",
    "tags": [
      "ラーメン・つけ麺",
      "泉州"
    ],
    "url": "https://goto-eat.weare.osaka-info.jp/gotoeat/gs171274/"
  },
  {
    "name": "河童ラーメン　本舗　岸和田店",
    "address": "596-0808\n岸和田市 三田町637ー1",
    "tel": "072-441-4411",
    "openingHours": "11：00-26：00",
    "tags": [
      "ラーメン・つけ麺",
      "泉州"
    ],
    "url": "https://goto-eat.weare.osaka-info.jp/gotoeat/gs171273/"
  },
  {
    "name": "美食倶楽部一歩　岸和田店",
    "address": "596-0821\n岸和田市 小松里町545-1",
    "tel": "072-444-4129",
    "openingHours": "11:00~15:30 17:00~22:30",
    "tags": [
      "洋食・西洋料理",
      "泉州"
    ],
    "url": "https://goto-eat.weare.osaka-info.jp/gotoeat/gs171163/"
  },
  {
    "name": "美食倶楽部一歩　泉佐野店",
    "address": "598-0015\n泉佐野市 高松南1-1-45",
    "tel": "072-469-6915",
    "openingHours": "11:00~15:30 17:00~22:30",
    "tags": [
      "洋食・西洋料理",
      "泉州"
    ],
    "url": "https://goto-eat.weare.osaka-info.jp/gotoeat/gs171162/"
  },
  {
    "name": "さん天　泉佐野鶴原店",
    "address": "598-0071\n泉佐野市 鶴原1542-1",
    "tel": "072-447-8804",
    "openingHours": "",
    "tags": [
      "和食",
      "泉州"
    ],
    "url": "https://goto-eat.weare.osaka-info.jp/gotoeat/gs171120/"
  },
  {
    "name": "さん天　岸和田八阪店",
    "address": "596-0049\n岸和田市 八阪町1-11-18",
    "tel": "072-468-8995",
    "openingHours": "",
    "tags": [
      "和食",
      "泉州"
    ],
    "url": "https://goto-eat.weare.osaka-info.jp/gotoeat/gs171116/"
  },
  {
    "name": "和食さと　岸和田荒木店",
    "address": "596-0004\n岸和田市 荒木町2-21-66",
    "tel": "072-444-0450",
    "openingHours": "",
    "tags": [
      "和食",
      "泉州"
    ],
    "url": "https://goto-eat.weare.osaka-info.jp/gotoeat/gs171069/"
  },
  {
    "name": "和食さと　泉佐野店",
    "address": "598-0001\n泉佐野市 上瓦屋542-1",
    "tel": "072-469-1350",
    "openingHours": "",
    "tags": [
      "和食",
      "泉州"
    ],
    "url": "https://goto-eat.weare.osaka-info.jp/gotoeat/gs171064/"
  },
  {
    "name": "焼肉 炭屋 阪南店",
    "address": "599-0202\n阪南市 下出720-5 わくわくアベニュー２号",
    "tel": "072-471-1529",
    "openingHours": "17時から23時",
    "tags": [
      "焼肉・ホルモン",
      "泉州"
    ],
    "url": "https://goto-eat.weare.osaka-info.jp/gotoeat/gs171035/"
  },
  {
    "name": "彩鳥屋　てっちゃん",
    "address": "596-0827\n岸和田市 上松町3090-1 リードビル1階",
    "tel": "072-432-0099",
    "openingHours": "",
    "tags": [
      "居酒屋",
      "泉州"
    ],
    "url": "https://goto-eat.weare.osaka-info.jp/gotoeat/gs171010/"
  },
  {
    "name": "韓国料理bibim' りんくうプレミアム・アウトレット店",
    "address": "598-8508\n泉佐野市 りんくう往来南3-28 りんくうプレミアムアウトレット　　メインサイド店舗",
    "tel": "072-447-7807",
    "openingHours": "11:00-21:00",
    "tags": [
      "アジア・エスニック料理",
      "泉州"
    ],
    "url": "https://goto-eat.weare.osaka-info.jp/gotoeat/gs170919/"
  },
  {
    "name": "旬彩 やすおか",
    "address": "597-0044\n貝塚市 森953-6",
    "tel": "080-6178-2589",
    "openingHours": "17：00～22：30",
    "tags": [
      "和食",
      "泉州"
    ],
    "url": "https://goto-eat.weare.osaka-info.jp/gotoeat/gs170836/"
  },
  {
    "name": "牛滝温泉　四季まつり　お食事処「扇」",
    "address": "596-0114\n岸和田市 大沢町1156",
    "tel": "072-479-2641",
    "openingHours": "9：00～21：00",
    "tags": [
      "和食",
      "泉州"
    ],
    "url": "https://goto-eat.weare.osaka-info.jp/gotoeat/gs170720/"
  },
  {
    "name": "松葉温泉　滝の湯　お食事処「扇」",
    "address": "597-0102\n貝塚市 木積3488番地",
    "tel": "072-421-3666",
    "openingHours": "9：00～21：00",
    "tags": [
      "和食",
      "泉州"
    ],
    "url": "https://goto-eat.weare.osaka-info.jp/gotoeat/gs170719/"
  },
  {
    "name": "ジャンボ酒場 春木駅前店",
    "address": "596-0006\n岸和田市 春木若松町14-6",
    "tel": "072-468-6855",
    "openingHours": "",
    "tags": [
      "居酒屋",
      "泉州"
    ],
    "url": "https://goto-eat.weare.osaka-info.jp/gotoeat/gs322464/"
  },
  {
    "name": "満マル　泉佐野店",
    "address": "598-0055\n泉佐野市 若宮町1-3 美森ビル　2階",
    "tel": "072-447-4533",
    "openingHours": "",
    "tags": [
      "居酒屋",
      "泉州"
    ],
    "url": "https://goto-eat.weare.osaka-info.jp/gotoeat/gs169275/"
  },
  {
    "name": "鳥貴族　泉佐野店",
    "address": "598-0055\n泉佐野市 若宮町1-3 美森ビル１階",
    "tel": "072-447-9833",
    "openingHours": "",
    "tags": [
      "居酒屋",
      "泉州"
    ],
    "url": "https://goto-eat.weare.osaka-info.jp/gotoeat/gs169267/"
  },
  {
    "name": "鳥貴族　ラパーク岸和田店",
    "address": "596-0006\n岸和田市 春木若松町21-1 ラパーク岸和田1ＦＤ-04",
    "tel": "072-479-3288",
    "openingHours": "",
    "tags": [
      "居酒屋",
      "泉州"
    ],
    "url": "https://goto-eat.weare.osaka-info.jp/gotoeat/gs169265/"
  },
  {
    "name": "鳥貴族　貝塚店",
    "address": "597-0083\n貝塚市 海塚1-4-20 マスターズエル貝塚１階",
    "tel": "072-493-8066",
    "openingHours": "",
    "tags": [
      "居酒屋",
      "泉州"
    ],
    "url": "https://goto-eat.weare.osaka-info.jp/gotoeat/gs169264/"
  },
  {
    "name": "鳥貴族　岸和田店",
    "address": "596-0054\n岸和田市 宮本町7-13 クリアビル2F",
    "tel": "072-493-2803",
    "openingHours": "",
    "tags": [
      "居酒屋",
      "泉州"
    ],
    "url": "https://goto-eat.weare.osaka-info.jp/gotoeat/gs169250/"
  },
  {
    "name": "PISOLA泉佐野店",
    "address": "598-0071\n泉佐野市 鶴原1924-2",
    "tel": "072-460-3434",
    "openingHours": "11時～24時（ラストオーダー23時）",
    "tags": [
      "イタリアン・フレンチ",
      "泉州"
    ],
    "url": "https://goto-eat.weare.osaka-info.jp/gotoeat/gs169147/"
  },
  {
    "name": "鮨・酒・肴　杉玉　岸和田",
    "address": "596-0054\n岸和田市 宮本町16-15 三泉岸和田ビル1Ｆ",
    "tel": "072-430-5145",
    "openingHours": "",
    "tags": [
      "居酒屋",
      "泉州"
    ],
    "url": "https://goto-eat.weare.osaka-info.jp/gotoeat/gs168857/"
  },
  {
    "name": "レストラン　シャンソニエ",
    "address": "596-0823\n岸和田市 下松町1-4-16 レストラン　シャンソニエ",
    "tel": "072-437-3838",
    "openingHours": "11:00~14:00(LO) 17:00~20:30(LO)",
    "tags": [
      "イタリアン・フレンチ",
      "泉州"
    ],
    "url": "https://goto-eat.weare.osaka-info.jp/gotoeat/gs168844/"
  },
  {
    "name": "得得　泉佐野市場西店",
    "address": "598-0006\n泉佐野市 市場西3-6-8",
    "tel": "0724-62-9786",
    "openingHours": "",
    "tags": [
      "和食",
      "泉州"
    ],
    "url": "https://goto-eat.weare.osaka-info.jp/gotoeat/gs168063/"
  },
  {
    "name": "叶家　りんくう泉南イオンモール店",
    "address": "590-0535\n泉南市 りんくうタウン南浜3-1 イオンモールりんくう泉南店1F",
    "tel": "072-480-6176",
    "openingHours": "",
    "tags": [
      "うどん・そば",
      "泉州"
    ],
    "url": "https://goto-eat.weare.osaka-info.jp/gotoeat/gs167841/"
  },
  {
    "name": "杵屋　岸和田ラパーク店",
    "address": "596-0006\n岸和田市 春木若松町21-29 ラ・パーク岸和田1F",
    "tel": "072-437-7780",
    "openingHours": "",
    "tags": [
      "うどん・そば",
      "泉州"
    ],
    "url": "https://goto-eat.weare.osaka-info.jp/gotoeat/gs167801/"
  },
  {
    "name": "みみみCafe",
    "address": "596-0056\n岸和田市 北町4-11",
    "tel": "072-439-1240",
    "openingHours": "9時から18時",
    "tags": [
      "カフェ・スイーツ",
      "泉州"
    ],
    "url": "https://goto-eat.weare.osaka-info.jp/gotoeat/gs167646/"
  },
  {
    "name": "中国料理　克 -katsu-",
    "address": "590-0521\n泉南市 樽井２丁目１３－２２",
    "tel": "072-442-1319",
    "openingHours": "11:30 ー 15:00 17:00 ー 22:00",
    "tags": [
      "中華料理",
      "泉州"
    ],
    "url": "https://goto-eat.weare.osaka-info.jp/gotoeat/gs167602/"
  },
  {
    "name": "炭火焼き鳥とら吉",
    "address": "597-0083\n貝塚市 海塚1-17-2",
    "tel": "072-437-4129",
    "openingHours": "17時から01時",
    "tags": [
      "居酒屋",
      "泉州"
    ],
    "url": "https://goto-eat.weare.osaka-info.jp/gotoeat/gs167598/"
  },
  {
    "name": "蛸よし",
    "address": "596-0835\n岸和田市 流木町70",
    "tel": "072-427-8801",
    "openingHours": "平日16:00～23:00 土日は11:30～23:00",
    "tags": [
      "お好み焼き・たこ焼き",
      "泉州"
    ],
    "url": "https://goto-eat.weare.osaka-info.jp/gotoeat/gs167584/"
  },
  {
    "name": "キッチンはっぴー",
    "address": "597-0072\n貝塚市 畠中1丁目19-7",
    "tel": "090-9998-4682",
    "openingHours": "18:00～0:00",
    "tags": [
      "お好み焼き・たこ焼き",
      "泉州"
    ],
    "url": "https://goto-eat.weare.osaka-info.jp/gotoeat/gs167565/"
  },
  {
    "name": "スターゲイトホテル関西エアポート　鉄板焼　りんくう",
    "address": "598-8511\n泉佐野市 りんくう往来北１番地 スターゲイトホテル関西エアポート52階",
    "tel": "072-460-1164",
    "openingHours": "11:30～14:30/17:30～21:00土日祝11:30～15:00/17:30～21:00",
    "tags": [
      "ホテルレストラン",
      "泉州"
    ],
    "url": "https://goto-eat.weare.osaka-info.jp/gotoeat/gs167531/"
  },
  {
    "name": "スターゲイトホテル関西エアポート　日本料理　有馬",
    "address": "598-8511\n泉佐野市 りんくう往来北１番地 スターゲイトホテル関西エアポート52階",
    "tel": "072-460-1164",
    "openingHours": "金11:30～14:30/17:30～21:00土日祝11:30～15:00/17:30～21:00",
    "tags": [
      "ホテルレストラン",
      "泉州"
    ],
    "url": "https://goto-eat.weare.osaka-info.jp/gotoeat/gs167530/"
  },
  {
    "name": "スターゲイトホテル関西エアポート　中国料理　星龍",
    "address": "598-8511\n泉佐野市 りんくう往来北１番地 スターゲイトホテル関西エアポート53階",
    "tel": "072-460-1164",
    "openingHours": "11:30～14:30/17:30～21:00土日祝11:30～15:00/17:30～21:00",
    "tags": [
      "ホテルレストラン",
      "泉州"
    ],
    "url": "https://goto-eat.weare.osaka-info.jp/gotoeat/gs167529/"
  },
  {
    "name": "スターゲイトホテル関西エアポート　ダイニング＆バー　スターゲイト",
    "address": "598-8511\n泉佐野市 りんくう往来北１番地 スターゲイトホテル関西エアポート54階",
    "tel": "072-460-1154",
    "openingHours": "11:30～14:30/17:30～21:00土日祝11:30～15:00/17:30～21:00",
    "tags": [
      "ホテルレストラン",
      "泉州"
    ],
    "url": "https://goto-eat.weare.osaka-info.jp/gotoeat/gs167528/"
  },
  {
    "name": "みらいや",
    "address": "596-0823\n岸和田市 下松町1-17-10 プラザ21 102号",
    "tel": "072-433-0600",
    "openingHours": "17:00～24:00",
    "tags": [
      "居酒屋",
      "泉州"
    ],
    "url": "https://goto-eat.weare.osaka-info.jp/gotoeat/gs167480/"
  },
  {
    "name": "海坊主 岸和田駅前店",
    "address": "596-0054\n岸和田市 宮本町１３－１",
    "tel": "072-439-9660",
    "openingHours": "17:00~24:00",
    "tags": [
      "居酒屋",
      "泉州"
    ],
    "url": "https://goto-eat.weare.osaka-info.jp/gotoeat/gs167479/"
  },
  {
    "name": "みなみかわ",
    "address": "590-0434\n泉南郡熊取町 小谷北２-１-２６",
    "tel": "072-452-0264",
    "openingHours": "11:30~14:00 17:00~22:00",
    "tags": [
      "和食",
      "泉州"
    ],
    "url": "https://goto-eat.weare.osaka-info.jp/gotoeat/gs167470/"
  },
  {
    "name": "いきなりステーキ岸和田店",
    "address": "596-0805\n岸和田市 田治米町321-1",
    "tel": "080-7039-1093",
    "openingHours": "11：00から23：00",
    "tags": [
      "その他",
      "泉州"
    ],
    "url": "https://goto-eat.weare.osaka-info.jp/gotoeat/gs167460/"
  },
  {
    "name": "牛角　貝塚店",
    "address": "597-0073\n貝塚市 脇浜１丁目１０－２",
    "tel": "072-432-0291",
    "openingHours": "17：00-24：00",
    "tags": [
      "焼肉・ホルモン",
      "泉州"
    ],
    "url": "https://goto-eat.weare.osaka-info.jp/gotoeat/gs167379/"
  },
  {
    "name": "焼肉 みらく亭",
    "address": "596-0825\n岸和田市 土生町2丁目30番19号",
    "tel": "072-439-2334",
    "openingHours": "17時～23時30分",
    "tags": [
      "焼肉・ホルモン",
      "泉州"
    ],
    "url": "https://goto-eat.weare.osaka-info.jp/gotoeat/gs167120/"
  },
  {
    "name": "鳥屋鶏人",
    "address": "598-0007\n泉佐野市 上町3-4-7 藤田ビル",
    "tel": "072-464-7844",
    "openingHours": "18時～23時",
    "tags": [
      "居酒屋",
      "泉州"
    ],
    "url": "https://goto-eat.weare.osaka-info.jp/gotoeat/gs167064/"
  },
  {
    "name": "阪南洋風食堂クゥクゥ",
    "address": "599-0212\n阪南市 自然田820-2",
    "tel": "072-471-6012",
    "openingHours": "",
    "tags": [
      "イタリアン・フレンチ",
      "泉州"
    ],
    "url": "https://goto-eat.weare.osaka-info.jp/gotoeat/gs167035/"
  },
  {
    "name": "BOCCO CURRY",
    "address": "596-0001\n岸和田市 磯上町4-4-5",
    "tel": "072-457-8884",
    "openingHours": "11時22時",
    "tags": [
      "カレー",
      "泉州"
    ],
    "url": "https://goto-eat.weare.osaka-info.jp/gotoeat/gs166978/"
  },
  {
    "name": "やきとりコートハウス",
    "address": "599-0204\n阪南市 鳥取420-1",
    "tel": "072-471-8228",
    "openingHours": "17:30～22:30",
    "tags": [
      "居酒屋",
      "泉州"
    ],
    "url": "https://goto-eat.weare.osaka-info.jp/gotoeat/gs166858/"
  },
  {
    "name": "串料理ふじお",
    "address": "598-0007\n泉佐野市 上町3－4－18 ファーストホテル1階串料理ふじお",
    "tel": "072-464-5670",
    "openingHours": "18：00～24：00",
    "tags": [
      "居酒屋",
      "泉州"
    ],
    "url": "https://goto-eat.weare.osaka-info.jp/gotoeat/gs166200/"
  },
  {
    "name": "kitchen&bar 36KR",
    "address": "598-0007\n泉佐野市 上町３ー６ー３２ 東海谷ビル１F",
    "tel": "072-463-7134",
    "openingHours": "１７：００ー２５：００",
    "tags": [
      "洋食・西洋料理",
      "泉州"
    ],
    "url": "https://goto-eat.weare.osaka-info.jp/gotoeat/gs166197/"
  },
  {
    "name": "かごの屋　岸和田店　　　　",
    "address": "596-0821\n岸和田市 小松里町2403",
    "tel": "072-440-5720",
    "openingHours": "",
    "tags": [
      "和食",
      "泉州"
    ],
    "url": "https://goto-eat.weare.osaka-info.jp/gotoeat/gs166101/"
  },
  {
    "name": "Dragon Fly",
    "address": "598-0007\n泉佐野市 上町3-7-13 フロンティス1F",
    "tel": "072-462-6911",
    "openingHours": "18:00～26:00",
    "tags": [
      "居酒屋",
      "泉州"
    ],
    "url": "https://goto-eat.weare.osaka-info.jp/gotoeat/gs166026/"
  },
  {
    "name": "シェスタ",
    "address": "590-0403\n泉南郡熊取町 大久保中2-1-1",
    "tel": "072-453-7116",
    "openingHours": "11:00～14:30 17:00～22:00",
    "tags": [
      "イタリアン・フレンチ",
      "泉州"
    ],
    "url": "https://goto-eat.weare.osaka-info.jp/gotoeat/gs165904/"
  },
  {
    "name": "北京飯店",
    "address": "598-0032\n泉佐野市 新安松3-2-31",
    "tel": "072-465-6080",
    "openingHours": "11:30～14:00 / 17:00～21:00",
    "tags": [
      "中華料理",
      "泉州"
    ],
    "url": "https://goto-eat.weare.osaka-info.jp/gotoeat/gs165899/"
  },
  {
    "name": "炭炭　泉佐野駅前店",
    "address": "598-0007\n泉佐野市 上町３丁目６ー３３",
    "tel": "072-458-3195",
    "openingHours": "",
    "tags": [
      "居酒屋",
      "泉州"
    ],
    "url": "https://goto-eat.weare.osaka-info.jp/gotoeat/gs165897/"
  },
  {
    "name": "そうさく料理てんきち",
    "address": "598-0048\n泉佐野市 りんくう往来北1-10 TRAIAL",
    "tel": "072-464-3108",
    "openingHours": "11:00～14:30 17:30～21:00",
    "tags": [
      "和食",
      "泉州"
    ],
    "url": "https://goto-eat.weare.osaka-info.jp/gotoeat/gs165703/"
  },
  {
    "name": "お好み焼き　鉄板焼き　ちっち",
    "address": "596-0825\n岸和田市 土生町1-4-17 マリンビル1F",
    "tel": "072-432-7110",
    "openingHours": "17:00-2:00",
    "tags": [
      "お好み焼き・たこ焼き",
      "泉州"
    ],
    "url": "https://goto-eat.weare.osaka-info.jp/gotoeat/gs165667/"
  },
  {
    "name": "洋食　ピッコローサ",
    "address": "598-0001\n泉佐野市 上瓦屋224-5",
    "tel": "072-461-2535",
    "openingHours": "11:30～14:30 17:30～21:30",
    "tags": [
      "洋食・西洋料理",
      "泉州"
    ],
    "url": "https://goto-eat.weare.osaka-info.jp/gotoeat/gs165546/"
  },
  {
    "name": "うどん忠雅堂",
    "address": "590-0505\n泉南市 信達大苗代1125-89",
    "tel": "072-484-4591",
    "openingHours": "11:00～15:00　17:30～21:00",
    "tags": [
      "うどん・そば",
      "泉州"
    ],
    "url": "https://goto-eat.weare.osaka-info.jp/gotoeat/gs165508/"
  },
  {
    "name": "道の駅みさき 丘の上食堂",
    "address": "599-0301\n泉南郡岬町 淡輪5654-3 道の駅みさき内",
    "tel": "072-494-0777",
    "openingHours": "11:00~18:00",
    "tags": [
      "和食",
      "泉州"
    ],
    "url": "https://goto-eat.weare.osaka-info.jp/gotoeat/gs165455/"
  },
  {
    "name": "ごちそう村　泉佐野店",
    "address": "598-0001\n泉佐野市 上瓦屋236-1",
    "tel": "072-464-4747",
    "openingHours": "11：30～15：00/18：00～22：30",
    "tags": [
      "居酒屋",
      "泉州"
    ],
    "url": "https://goto-eat.weare.osaka-info.jp/gotoeat/gs165459/"
  },
  {
    "name": "ごちそう村　岸和田店",
    "address": "596-0049\n岸和田市 八阪町1-63-1",
    "tel": "072-422-4747",
    "openingHours": "11：30～15：00/18：00～22：30",
    "tags": [
      "居酒屋",
      "泉州"
    ],
    "url": "https://goto-eat.weare.osaka-info.jp/gotoeat/gs165458/"
  },
  {
    "name": "ケンタッキーフライドチキン　阪南黒田店",
    "address": "599-0203\n阪南市 黒田４２５－１",
    "tel": "072-447-8853",
    "openingHours": "10:00～21:00",
    "tags": [
      "その他",
      "泉州"
    ],
    "url": "https://goto-eat.weare.osaka-info.jp/gotoeat/gs165416/"
  },
  {
    "name": "喰快",
    "address": "597-0033\n貝塚市 半田1丁目9-30",
    "tel": "072-486-9015",
    "openingHours": "",
    "tags": [
      "居酒屋",
      "泉州"
    ],
    "url": "https://goto-eat.weare.osaka-info.jp/gotoeat/gs165314/"
  },
  {
    "name": "和食麺処サガミ岸和田店",
    "address": "596-0808\n岸和田市 三田町69-1",
    "tel": "072-445-7895",
    "openingHours": "11：00～22：00",
    "tags": [
      "和食",
      "泉州"
    ],
    "url": "https://goto-eat.weare.osaka-info.jp/gotoeat/gs165092/"
  },
  {
    "name": "鰻や　竹うち",
    "address": "597-0042\n貝塚市 名越404-1",
    "tel": "072-447-4886",
    "openingHours": "11：00～14：30　15：30～19：00",
    "tags": [
      "和食",
      "泉州"
    ],
    "url": "https://goto-eat.weare.osaka-info.jp/gotoeat/gs164813/"
  },
  {
    "name": "うどん・そばダイニング　たにと",
    "address": "590-0533\n泉南市 中小路１丁目７－１６",
    "tel": "072-483-3652",
    "openingHours": "11時～14時、17時30分～20時",
    "tags": [
      "うどん・そば",
      "泉州"
    ],
    "url": "https://goto-eat.weare.osaka-info.jp/gotoeat/gs164809/"
  },
  {
    "name": "ホテル日航関西空港 中華料理 桃李",
    "address": "549-0001\n泉佐野市 泉州空港北1番地",
    "tel": "072-455-1120",
    "openingHours": "",
    "tags": [
      "ホテルレストラン",
      "泉州"
    ],
    "url": "https://goto-eat.weare.osaka-info.jp/gotoeat/gs164867/"
  },
  {
    "name": "ホテル日航関西空港 オールデイダイニング ザ・ブラッスリー",
    "address": "549-0001\n泉佐野市 泉州空港北1番地",
    "tel": "072-455-1120",
    "openingHours": "",
    "tags": [
      "ホテルレストラン",
      "泉州"
    ],
    "url": "https://goto-eat.weare.osaka-info.jp/gotoeat/gs164866/"
  },
  {
    "name": "焼肉むさし",
    "address": "590-0521\n泉南市 樽井3-203-1",
    "tel": "072-484-5206",
    "openingHours": "",
    "tags": [
      "焼肉・ホルモン",
      "泉州"
    ],
    "url": "https://goto-eat.weare.osaka-info.jp/gotoeat/gs164744/"
  },
  {
    "name": "modern dining かがり",
    "address": "598-0021\n泉佐野市 日根野4364-9",
    "tel": "072-493-9595",
    "openingHours": "11時30分～14時00分 17時～23時",
    "tags": [
      "居酒屋",
      "泉州"
    ],
    "url": "https://goto-eat.weare.osaka-info.jp/gotoeat/gs164487/"
  },
  {
    "name": "浪切ダイニング　庄八",
    "address": "596-0014\n岸和田市 港緑町1-1",
    "tel": "072-477-5816",
    "openingHours": "11:00～22:00",
    "tags": [
      "和食",
      "泉州"
    ],
    "url": "https://goto-eat.weare.osaka-info.jp/gotoeat/gs164252/"
  },
  {
    "name": "和食や　庄八",
    "address": "596-0101\n岸和田市 包近町748-1",
    "tel": "072-443-2312",
    "openingHours": "11:00～22:00",
    "tags": [
      "和食",
      "泉州"
    ],
    "url": "https://goto-eat.weare.osaka-info.jp/gotoeat/gs164251/"
  },
  {
    "name": "泉州温泉カフェ",
    "address": "598-0048\n泉佐野市 りんくう往来北１－２３ アクアイグニス泉州温泉",
    "tel": "072-463-1600",
    "openingHours": "10:00-23:00",
    "tags": [
      "カフェ・スイーツ",
      "泉州"
    ],
    "url": "https://goto-eat.weare.osaka-info.jp/gotoeat/gs163921/"
  },
  {
    "name": "青庵　kyomachibori rikyu",
    "address": "598-0048\n泉佐野市 りんくう往来北１－２３ アクアイグニス泉州温泉",
    "tel": "072-463-1603",
    "openingHours": "11:00-14:30 17:00-21:30",
    "tags": [
      "和食",
      "泉州"
    ],
    "url": "https://goto-eat.weare.osaka-info.jp/gotoeat/gs163920/"
  },
  {
    "name": "ジンギスカン　白樺",
    "address": "596-0826\n岸和田市 作才町1137 有恒第三ビル2階",
    "tel": "072-439-0101",
    "openingHours": "18:00～22:00",
    "tags": [
      "焼肉・ホルモン",
      "泉州"
    ],
    "url": "https://goto-eat.weare.osaka-info.jp/gotoeat/gs163797/"
  },
  {
    "name": "ア・ラ・カルトPINO",
    "address": "590-0521\n泉南市 樽井2-1-45",
    "tel": "072-483-8986",
    "openingHours": "11:00～15:00",
    "tags": [
      "洋食・西洋料理",
      "泉州"
    ],
    "url": "https://goto-eat.weare.osaka-info.jp/gotoeat/gs163766/"
  },
  {
    "name": "とんかつKYK関西国際空港店",
    "address": "549-0011\n泉南郡田尻町 泉州空港中1番地 旅客ターミナルビル3階",
    "tel": "072-456-6566",
    "openingHours": "11:00-20:30",
    "tags": [
      "和食",
      "泉州"
    ],
    "url": "https://goto-eat.weare.osaka-info.jp/gotoeat/gs163506/"
  },
  {
    "name": "阪和自動車道岸和田サービスエリア上り線　レストランだんじり庵",
    "address": "596-0105\n岸和田市 内畑町2859",
    "tel": "072-479-2270",
    "openingHours": "",
    "tags": [
      "その他",
      "泉州"
    ],
    "url": "https://goto-eat.weare.osaka-info.jp/gotoeat/gs163474/"
  },
  {
    "name": "La trampista",
    "address": "598-0007\n泉佐野市 上町1-10-12-4",
    "tel": "072-474-5500",
    "openingHours": "",
    "tags": [
      "イタリアン・フレンチ",
      "泉州"
    ],
    "url": "https://goto-eat.weare.osaka-info.jp/gotoeat/gs163036/"
  },
  {
    "name": "ごはんや　yottaro　よったろ",
    "address": "590-0505\n泉南市 信達大苗代701-9",
    "tel": "072-493-9858",
    "openingHours": "１７時～２３時",
    "tags": [
      "居酒屋",
      "泉州"
    ],
    "url": "https://goto-eat.weare.osaka-info.jp/gotoeat/gs162750/"
  },
  {
    "name": "たこやきぴょんぴょん",
    "address": "590-0531\n泉南市 岡田3-7-33",
    "tel": "090-5646-0457",
    "openingHours": "11～19時",
    "tags": [
      "お好み焼き・たこ焼き",
      "泉州"
    ],
    "url": "https://goto-eat.weare.osaka-info.jp/gotoeat/gs162252/"
  },
  {
    "name": "黒毛和牛焼肉ビーファーズ 岸和田牧場",
    "address": "596-0049\n岸和田市 八阪町1-9-20",
    "tel": "072-436-4129",
    "openingHours": "",
    "tags": [
      "焼肉・ホルモン",
      "泉州"
    ],
    "url": "https://goto-eat.weare.osaka-info.jp/gotoeat/gs161870/"
  },
  {
    "name": "黒毛和牛焼肉ビーファーズ 泉佐野牧場",
    "address": "598-0006\n泉佐野市 市場西2-1-23",
    "tel": "072-469-1129",
    "openingHours": "",
    "tags": [
      "焼肉・ホルモン",
      "泉州"
    ],
    "url": "https://goto-eat.weare.osaka-info.jp/gotoeat/gs161869/"
  },
  {
    "name": "寿司割烹たから丸山",
    "address": "597-0053\n貝塚市 地蔵堂294-7",
    "tel": "072-431-2001",
    "openingHours": "",
    "tags": [
      "寿司・魚料理",
      "泉州"
    ],
    "url": "https://goto-eat.weare.osaka-info.jp/gotoeat/gs161704/"
  },
  {
    "name": "寿司割烹たから本店",
    "address": "597-0054\n貝塚市 堤96-1",
    "tel": "072-431-7707",
    "openingHours": "",
    "tags": [
      "寿司・魚料理",
      "泉州"
    ],
    "url": "https://goto-eat.weare.osaka-info.jp/gotoeat/gs161696/"
  },
  {
    "name": "鶴橋風月　荒木店",
    "address": "596-0004\n岸和田市 荒木町２－１９－１０",
    "tel": "072-448-5012",
    "openingHours": "11:00-23:00",
    "tags": [
      "お好み焼き・たこ焼き",
      "泉州"
    ],
    "url": "https://goto-eat.weare.osaka-info.jp/gotoeat/gs161535/"
  },
  {
    "name": "カプリチョーザイオンモールりんくう泉南",
    "address": "590-0535\n泉南市 りんくう南浜3-12 イオンモールりんくう泉南1階",
    "tel": "072-480-6198",
    "openingHours": "",
    "tags": [
      "イタリアン・フレンチ",
      "泉州"
    ],
    "url": "https://goto-eat.weare.osaka-info.jp/gotoeat/gs161130/"
  },
  {
    "name": "かに道楽　岸和田店",
    "address": "596-0821\n岸和田市 小松里町2570",
    "tel": "0120-088-622",
    "openingHours": "11:00～22:00　※12月31日、1月2日は11:00～22:00",
    "tags": [
      "和食",
      "泉州"
    ],
    "url": "https://goto-eat.weare.osaka-info.jp/gotoeat/gs161107/"
  },
  {
    "name": "茶房　一会",
    "address": "597-0104\n貝塚市 水間６１５",
    "tel": "072-446-0881",
    "openingHours": "8：30~17：00",
    "tags": [
      "カフェ・スイーツ",
      "泉州"
    ],
    "url": "https://goto-eat.weare.osaka-info.jp/gotoeat/gs159178/"
  },
  {
    "name": "こんぴら",
    "address": "590-0402\n泉南郡熊取町 大久保北2-23-17",
    "tel": "072-453-1939",
    "openingHours": "11時30分-14時　　17時-20時15分",
    "tags": [
      "うどん・そば",
      "泉州"
    ],
    "url": "https://goto-eat.weare.osaka-info.jp/gotoeat/gs159149/"
  },
  {
    "name": "四季食彩ichi's",
    "address": "597-0073\n貝塚市 脇浜1丁目1-11-101 リノン脇浜",
    "tel": "072-422-8305",
    "openingHours": "11:30～14:00 18:00～22:00",
    "tags": [
      "和食",
      "泉州"
    ],
    "url": "https://goto-eat.weare.osaka-info.jp/gotoeat/gs159087/"
  },
  {
    "name": "パンケーキカフェcafeblow泉佐野店",
    "address": "598-0021\n泉佐野市 日根野3963-3",
    "tel": "090-5127-9187",
    "openingHours": "10:00～17:00",
    "tags": [
      "カフェ・スイーツ",
      "泉州"
    ],
    "url": "https://goto-eat.weare.osaka-info.jp/gotoeat/gs159042/"
  },
  {
    "name": "大宮ブランカフェ",
    "address": "596-0046\n岸和田市 藤井町2-15-17",
    "tel": "072-437-2300",
    "openingHours": "9：00～17：00",
    "tags": [
      "カフェ・スイーツ",
      "泉州"
    ],
    "url": "https://goto-eat.weare.osaka-info.jp/gotoeat/gs158916/"
  },
  {
    "name": "いろは満月　岸和田店",
    "address": "596-0044\n岸和田市 西之内町10-38",
    "tel": "072-422-2389",
    "openingHours": "平日11：00～15：00　　17：00～22：00　　日祝　11：00～22：00",
    "tags": [
      "お好み焼き・たこ焼き",
      "泉州"
    ],
    "url": "https://goto-eat.weare.osaka-info.jp/gotoeat/gs158914/"
  },
  {
    "name": "いろは満月　泉佐野店",
    "address": "598-0004\n泉佐野市 市場南1-8-20",
    "tel": "072-461-0468",
    "openingHours": "平日11：00～15：00　　17：00～22：00　　日祝　11：00～22：00",
    "tags": [
      "お好み焼き・たこ焼き",
      "泉州"
    ],
    "url": "https://goto-eat.weare.osaka-info.jp/gotoeat/gs158913/"
  },
  {
    "name": "五風荘",
    "address": "596-0073\n岸和田市 岸城町18-1",
    "tel": "072-438-5230",
    "openingHours": "",
    "tags": [
      "和食",
      "泉州"
    ],
    "url": "https://goto-eat.weare.osaka-info.jp/gotoeat/gs158909/"
  },
  {
    "name": "グランドフレンチ＆ベーカリー　マリーナ",
    "address": "596-0821\n岸和田市 小松里町2512",
    "tel": "072-468-7710",
    "openingHours": "",
    "tags": [
      "イタリアン・フレンチ",
      "泉州"
    ],
    "url": "https://goto-eat.weare.osaka-info.jp/gotoeat/gs158908/"
  },
  {
    "name": "鮨処　岸和田しゃり番",
    "address": "596-0821\n岸和田市 小松里町2512",
    "tel": "072-448-7060",
    "openingHours": "",
    "tags": [
      "寿司・魚料理",
      "泉州"
    ],
    "url": "https://goto-eat.weare.osaka-info.jp/gotoeat/gs158907/"
  },
  {
    "name": "岸和田グランドホール",
    "address": "596-0821\n岸和田市 小松里町2512",
    "tel": "072-445-1200",
    "openingHours": "",
    "tags": [
      "その他",
      "泉州"
    ],
    "url": "https://goto-eat.weare.osaka-info.jp/gotoeat/gs158906/"
  },
  {
    "name": "中国名菜秀平",
    "address": "598-0062\n泉佐野市 下瓦屋347-1",
    "tel": "072-464-8292",
    "openingHours": "11時30分～14時　17時～22時",
    "tags": [
      "中華料理",
      "泉州"
    ],
    "url": "https://goto-eat.weare.osaka-info.jp/gotoeat/gs158806/"
  },
  {
    "name": "ベル・ヴィル　岸和田カンカンベイサイドモール店",
    "address": "596-0014\n岸和田市 港緑町2-1 岸和田カンカンベイサイドモールWEST1F",
    "tel": "072-430-6666",
    "openingHours": "10：00～20：00",
    "tags": [
      "カフェ・スイーツ",
      "泉州"
    ],
    "url": "https://goto-eat.weare.osaka-info.jp/gotoeat/gs158832/"
  },
  {
    "name": "丸源ラーメン　泉佐野店",
    "address": "598-0071\n泉佐野市 鶴原1942-1",
    "tel": "072-458-7722",
    "openingHours": "11:00～26:00",
    "tags": [
      "ラーメン・つけ麺",
      "泉州"
    ],
    "url": "https://goto-eat.weare.osaka-info.jp/gotoeat/gs158830/"
  },
  {
    "name": "串カツ田中　岸和田店",
    "address": "596-0821\n岸和田市 小松里町2416",
    "tel": "072-448-7744",
    "openingHours": "11:00～24:00",
    "tags": [
      "居酒屋",
      "泉州"
    ],
    "url": "https://goto-eat.weare.osaka-info.jp/gotoeat/gs158828/"
  },
  {
    "name": "びっくりドンキー　泉佐野店",
    "address": "598-0002\n泉佐野市 中庄1418",
    "tel": "072-462-1800",
    "openingHours": "11:00～26:00",
    "tags": [
      "洋食・西洋料理",
      "泉州"
    ],
    "url": "https://goto-eat.weare.osaka-info.jp/gotoeat/gs158826/"
  },
  {
    "name": "びっくりドンキー　岸和田店",
    "address": "596-0821\n岸和田市 小松里町2541",
    "tel": "072-444-5417",
    "openingHours": "11:00～26:00",
    "tags": [
      "洋食・西洋料理",
      "泉州"
    ],
    "url": "https://goto-eat.weare.osaka-info.jp/gotoeat/gs158824/"
  },
  {
    "name": "とりかわ権兵衛　泉佐野店",
    "address": "598-0002\n泉佐野市 中庄888-1",
    "tel": "072-458-9494",
    "openingHours": "17:00～24:00(金土祝前日17:00～25:00)",
    "tags": [
      "鍋",
      "泉州"
    ],
    "url": "https://goto-eat.weare.osaka-info.jp/gotoeat/gs158821/"
  },
  {
    "name": "とりかわ権兵衛　泉南店",
    "address": "590-0522\n泉南市 信達牧野957-1",
    "tel": "072-480-1111",
    "openingHours": "17:00～24:00(金土祝前日17:00～25:00)",
    "tags": [
      "鍋",
      "泉州"
    ],
    "url": "https://goto-eat.weare.osaka-info.jp/gotoeat/gs158817/"
  },
  {
    "name": "とりかわ権兵衛　岸和田店",
    "address": "596-0821\n岸和田市 小松里町2416",
    "tel": "072-429-9992",
    "openingHours": "17:00～24:00(金土祝前日17:00～25:00)",
    "tags": [
      "鍋",
      "泉州"
    ],
    "url": "https://goto-eat.weare.osaka-info.jp/gotoeat/gs158816/"
  },
  {
    "name": "とりかわ権兵衛　貝塚店",
    "address": "597-0082\n貝塚市 石才362-1",
    "tel": "072-493-2207",
    "openingHours": "17:00～24:00(金土祝前日17:00～25:00)",
    "tags": [
      "鍋",
      "泉州"
    ],
    "url": "https://goto-eat.weare.osaka-info.jp/gotoeat/gs158815/"
  },
  {
    "name": "紅さんざし",
    "address": "598-0062\n泉佐野市 下瓦屋4-3-16",
    "tel": "072-462-6619",
    "openingHours": "",
    "tags": [
      "和食",
      "泉州"
    ],
    "url": "https://goto-eat.weare.osaka-info.jp/gotoeat/gs158686/"
  },
  {
    "name": "花満円　日根野店",
    "address": "598-0021\n泉佐野市 日根野2496-1 イオン日根野店1Ｆ",
    "tel": "072-467-0677",
    "openingHours": "10：00 ～ 21：00",
    "tags": [
      "和食",
      "泉州"
    ],
    "url": "https://goto-eat.weare.osaka-info.jp/gotoeat/gs158562/"
  },
  {
    "name": "ジャドールルパン　泉佐野店",
    "address": "598-0062\n泉佐野市 下瓦屋2-2-77 いこらもーる泉佐野店1F",
    "tel": "072-464-9930",
    "openingHours": "10：00 ～ 22：00",
    "tags": [
      "洋食・西洋料理",
      "泉州"
    ],
    "url": "https://goto-eat.weare.osaka-info.jp/gotoeat/gs158561/"
  },
  {
    "name": "花満円　泉佐野店",
    "address": "598-0062\n泉佐野市 下瓦屋2-2-77 いこらもーる泉佐野店1F",
    "tel": "072-479-6500",
    "openingHours": "10：00 ～ 22：00",
    "tags": [
      "和食",
      "泉州"
    ],
    "url": "https://goto-eat.weare.osaka-info.jp/gotoeat/gs158559/"
  },
  {
    "name": "三田屋本店－やすらぎの郷－りんくうプレミアム・アウトレット店",
    "address": "598-8509\n泉佐野市 りんくう往来南４－１７ りんくうプレミアム・アウトレット　シーサイド1階",
    "tel": "072-447-7150",
    "openingHours": "11：00～21：00",
    "tags": [
      "洋食・西洋料理",
      "泉州"
    ],
    "url": "https://goto-eat.weare.osaka-info.jp/gotoeat/gs158342/"
  },
  {
    "name": "焼とり・串揚げ・釜めし　鳥いちばん　貝塚店",
    "address": "597-0062\n貝塚市 澤157-1",
    "tel": "072-430-6868",
    "openingHours": "平日：17:00~23:30土日祝：16:30~23:30",
    "tags": [
      "居酒屋",
      "泉州"
    ],
    "url": "https://goto-eat.weare.osaka-info.jp/gotoeat/gs158293/"
  },
  {
    "name": "焼とり・串揚げ・釜めし　鳥いちばん　岸和田三田店",
    "address": "596-0808\n岸和田市 三田町68-2",
    "tel": "072-441-0133",
    "openingHours": "平日・土曜日：17:00~23:30日祝：16:30~23:30",
    "tags": [
      "居酒屋",
      "泉州"
    ],
    "url": "https://goto-eat.weare.osaka-info.jp/gotoeat/gs158292/"
  },
  {
    "name": "全品280円均一　鳥きんぐ　岸和田店",
    "address": "596-0001\n岸和田市 磯上町1-14-23",
    "tel": "072-430-6507",
    "openingHours": "平日：17:00~23:30土日祝：16:30~23:30",
    "tags": [
      "居酒屋",
      "泉州"
    ],
    "url": "https://goto-eat.weare.osaka-info.jp/gotoeat/gs158288/"
  },
  {
    "name": "裕太朗寿し",
    "address": "598-0051\n泉佐野市 新町2丁目5187-101（青空市場内）",
    "tel": "072-460-1313",
    "openingHours": "",
    "tags": [
      "寿司・魚料理",
      "泉州"
    ],
    "url": "https://goto-eat.weare.osaka-info.jp/gotoeat/gs158279/"
  },
  {
    "name": "お魚食堂　こたや",
    "address": "598-0064\n泉佐野市 新浜町3番地",
    "tel": "072-458-0800",
    "openingHours": "平日11時～15時　ラストオーダー14時",
    "tags": [
      "寿司・魚料理",
      "泉州"
    ],
    "url": "https://goto-eat.weare.osaka-info.jp/gotoeat/gs158278/"
  },
  {
    "name": "や台ずし　貝塚駅前町",
    "address": "597-0083\n貝塚市 貝塚1-1-17　 ショップ貝塚",
    "tel": "072-436-6188",
    "openingHours": "16:00～1：00",
    "tags": [
      "寿司・魚料理",
      "泉州"
    ],
    "url": "https://goto-eat.weare.osaka-info.jp/gotoeat/gs158258/"
  },
  {
    "name": "や台ずし　東岸和田駅前町",
    "address": "596-0825\n岸和田市 土生町4-3-1　 リハーブ東岸和田",
    "tel": "072-427-6028",
    "openingHours": "16:00～1：00",
    "tags": [
      "寿司・魚料理",
      "泉州"
    ],
    "url": "https://goto-eat.weare.osaka-info.jp/gotoeat/gs158256/"
  },
  {
    "name": "や台ずし　岸和田駅前町",
    "address": "596-0054\n岸和田市 宮本町14-1",
    "tel": "072-438-4828",
    "openingHours": "16:00～2：00",
    "tags": [
      "寿司・魚料理",
      "泉州"
    ],
    "url": "https://goto-eat.weare.osaka-info.jp/gotoeat/gs158255/"
  },
  {
    "name": "YAKINIKU BUFFET左近　りんくうシークル店",
    "address": "598-0047\n泉佐野市 りんくう往来南3 りんくうプレジャータウンシークル 2F",
    "tel": "072-493-2917",
    "openingHours": "",
    "tags": [
      "焼肉・ホルモン",
      "泉州"
    ],
    "url": "https://goto-eat.weare.osaka-info.jp/gotoeat/gs158165/"
  },
  {
    "name": "バイキング左近　末広店",
    "address": "598-0032\n泉佐野市 新安松１－1－７",
    "tel": "072-464-6611",
    "openingHours": "",
    "tags": [
      "焼肉・ホルモン",
      "泉州"
    ],
    "url": "https://goto-eat.weare.osaka-info.jp/gotoeat/gs158162/"
  },
  {
    "name": "深川本店",
    "address": "597-0001\n貝塚市 近木町２－７",
    "tel": "072-422-1621",
    "openingHours": "９時～２０時",
    "tags": [
      "寿司・魚料理",
      "泉州"
    ],
    "url": "https://goto-eat.weare.osaka-info.jp/gotoeat/gs157970/"
  },
  {
    "name": "串処　源よし.",
    "address": "596-0035\n岸和田市 春木泉町9-26",
    "tel": "072-437-0234",
    "openingHours": "17時～23時",
    "tags": [
      "居酒屋",
      "泉州"
    ],
    "url": "https://goto-eat.weare.osaka-info.jp/gotoeat/gs156671/"
  },
  {
    "name": "レストラン日本",
    "address": "596-0048\n岸和田市 上野町西11-1",
    "tel": "072-437-2801",
    "openingHours": "11:30~14:30 17:00~20:30",
    "tags": [
      "洋食・西洋料理",
      "泉州"
    ],
    "url": "https://goto-eat.weare.osaka-info.jp/gotoeat/gs156609/"
  },
  {
    "name": "29kitchen Masuda",
    "address": "596-0001\n岸和田市 磯上町4-4-5 メゾン山本",
    "tel": "072-423-8087",
    "openingHours": "11時～15時　17時～20時半ラストオーダー(木金土)",
    "tags": [
      "洋食・西洋料理",
      "泉州"
    ],
    "url": "https://goto-eat.weare.osaka-info.jp/gotoeat/gs156579/"
  },
  {
    "name": "マクドナルド２６号泉南店",
    "address": "590-0525\n泉南市 馬場２－３５－３",
    "tel": "072-482-2596",
    "openingHours": "24時間",
    "tags": [
      "その他",
      "泉州"
    ],
    "url": "https://goto-eat.weare.osaka-info.jp/gotoeat/gs156389/"
  },
  {
    "name": "マクドナルドりんくうシークル店",
    "address": "598-0047\n泉佐野市 りんくう往来南３番",
    "tel": "072-458-0680",
    "openingHours": "10:00-22:00",
    "tags": [
      "その他",
      "泉州"
    ],
    "url": "https://goto-eat.weare.osaka-info.jp/gotoeat/gs156388/"
  },
  {
    "name": "マクドナルドイオンモールりんくう泉南店",
    "address": "590-0535\n泉南市 りんくう南浜３－１２",
    "tel": "072-484-4660",
    "openingHours": "10:00-20:30",
    "tags": [
      "その他",
      "泉州"
    ],
    "url": "https://goto-eat.weare.osaka-info.jp/gotoeat/gs156387/"
  },
  {
    "name": "マクドナルド阪南店",
    "address": "599-0203\n阪南市 黒田３４６－１",
    "tel": "072-472-7205",
    "openingHours": "7:00-24:00",
    "tags": [
      "その他",
      "泉州"
    ],
    "url": "https://goto-eat.weare.osaka-info.jp/gotoeat/gs156386/"
  },
  {
    "name": "マクドナルド岸和田磯上店",
    "address": "596-0001\n岸和田市 磯上町４－６－６",
    "tel": "072-430-0091",
    "openingHours": "6:00-24:00",
    "tags": [
      "その他",
      "泉州"
    ],
    "url": "https://goto-eat.weare.osaka-info.jp/gotoeat/gs156385/"
  },
  {
    "name": "酒房　枡",
    "address": "597-0083\n貝塚市 海塚1丁目9-36",
    "tel": "072-432-3982",
    "openingHours": "1600から2300",
    "tags": [
      "居酒屋",
      "泉州"
    ],
    "url": "https://goto-eat.weare.osaka-info.jp/gotoeat/gs156358/"
  },
  {
    "name": "和心料理　寿",
    "address": "598-0007\n泉佐野市 上町３ー１０ー９",
    "tel": "072-458-6116",
    "openingHours": "11:00-14:00,17:00-23:00",
    "tags": [
      "和食",
      "泉州"
    ],
    "url": "https://goto-eat.weare.osaka-info.jp/gotoeat/gs156342/"
  },
  {
    "name": "居酒屋 次郎長",
    "address": "599-0202\n阪南市 下出720-5 わくわくアベニュー2Ｆ",
    "tel": "072-472-6886",
    "openingHours": "月曜日から金曜日・日曜日17:00-22:30　　土曜日17:00-23:00",
    "tags": [
      "居酒屋",
      "泉州"
    ],
    "url": "https://goto-eat.weare.osaka-info.jp/gotoeat/gs156327/"
  },
  {
    "name": "NOBANA SIDE CAFE",
    "address": "596-0055\n岸和田市 五軒屋町2-1",
    "tel": "050-5840-6895",
    "openingHours": "9:00～17:00",
    "tags": [
      "カフェ・スイーツ",
      "泉州"
    ],
    "url": "https://goto-eat.weare.osaka-info.jp/gotoeat/gs156325/"
  },
  {
    "name": "割烹屋ゆず",
    "address": "597-0073\n貝塚市 脇浜4-4-6",
    "tel": "072-439-1335",
    "openingHours": "11時～１４時　17時～22時",
    "tags": [
      "和食",
      "泉州"
    ],
    "url": "https://goto-eat.weare.osaka-info.jp/gotoeat/gs156308/"
  },
  {
    "name": "得正/上等カレー岸和田店",
    "address": "596-0004\n岸和田市 荒木町2-18-19",
    "tel": "072-445-0141",
    "openingHours": "11：00～23：00",
    "tags": [
      "カレー",
      "泉州"
    ],
    "url": "https://goto-eat.weare.osaka-info.jp/gotoeat/gs156341/"
  },
  {
    "name": "天下一品イオンモールりんくう泉南店",
    "address": "590-0535\n泉南市 りんくう南浜3-12 イオンモールりんくう泉南　2Ｆ",
    "tel": "075-480-2010",
    "openingHours": "10:00～22:00(OS 閉店30分前)",
    "tags": [
      "ラーメン・つけ麺",
      "泉州"
    ],
    "url": "https://goto-eat.weare.osaka-info.jp/gotoeat/gs156287/"
  },
  {
    "name": "alt burst",
    "address": "598-0043\n泉佐野市 大西1丁目13-14",
    "tel": "072-442-6731",
    "openingHours": "11時～22時",
    "tags": [
      "カフェ・スイーツ",
      "泉州"
    ],
    "url": "https://goto-eat.weare.osaka-info.jp/gotoeat/gs156202/"
  },
  {
    "name": "鮨処　にしの",
    "address": "596-0101\n岸和田市 包近町157-3",
    "tel": "072-441-8036",
    "openingHours": "",
    "tags": [
      "寿司・魚料理",
      "泉州"
    ],
    "url": "https://goto-eat.weare.osaka-info.jp/gotoeat/gs156201/"
  },
  {
    "name": "クッチーナ　テント",
    "address": "596-0811\n岸和田市 下池田町1-6-33-101",
    "tel": "072-447-7096",
    "openingHours": "11時半～15時/17時半～22時",
    "tags": [
      "イタリアン・フレンチ",
      "泉州"
    ],
    "url": "https://goto-eat.weare.osaka-info.jp/gotoeat/gs156196/"
  },
  {
    "name": "つけ鴨うどん鴨錦　春木店",
    "address": "596-0006\n岸和田市 春木若松町19-15",
    "tel": "072-433-0234",
    "openingHours": "11時～14時　18時～22時",
    "tags": [
      "うどん・そば",
      "泉州"
    ],
    "url": "https://goto-eat.weare.osaka-info.jp/gotoeat/gs156031/"
  },
  {
    "name": "ビストロ　オゼ・ミニョン",
    "address": "596-0823\n岸和田市 下松町1-15-3 ステイブルコート103",
    "tel": "072-479-8155",
    "openingHours": "13：00～24：00",
    "tags": [
      "洋食・西洋料理",
      "泉州"
    ],
    "url": "https://goto-eat.weare.osaka-info.jp/gotoeat/gs156010/"
  },
  {
    "name": "とりひめ岸和田",
    "address": "596-0823\n岸和田市 下松町1-3-4 ウインディ岸和田内",
    "tel": "072-429-3986",
    "openingHours": "17：00～24：00",
    "tags": [
      "居酒屋",
      "泉州"
    ],
    "url": "https://goto-eat.weare.osaka-info.jp/gotoeat/gs155947/"
  },
  {
    "name": "小陽春(シャオヤンチュン)泉佐野鶴原店",
    "address": "598-0071\n泉佐野市 鶴原1257-1",
    "tel": "072-461-4611",
    "openingHours": "11：00～21：00",
    "tags": [
      "カフェ・スイーツ",
      "泉州"
    ],
    "url": "https://goto-eat.weare.osaka-info.jp/gotoeat/gs156017/"
  },
  {
    "name": "木曽路岸和田店",
    "address": "596-0004\n岸和田市 荒木町2丁目20-7　",
    "tel": "072-488-7421",
    "openingHours": "ランチタイム11時～15時（LO14時半） ディナータイム17時～22時（LO21時）",
    "tags": [
      "和食",
      "泉州"
    ],
    "url": "https://goto-eat.weare.osaka-info.jp/gotoeat/gs156006/"
  },
  {
    "name": "魚べい 岸和田店",
    "address": "596-0803\n岸和田市 東大路町275番",
    "tel": "072-479-8802",
    "openingHours": "",
    "tags": [
      "寿司・魚料理",
      "泉州"
    ],
    "url": "https://goto-eat.weare.osaka-info.jp/gotoeat/gs315608/"
  },
  {
    "name": "洋風居酒屋　　ちゃっちゃ",
    "address": "596-0054\n岸和田市 宮本町15-9",
    "tel": "072-430-1155",
    "openingHours": "11:30～14:00 18:00～23:00",
    "tags": [
      "居酒屋",
      "泉州"
    ],
    "url": "https://goto-eat.weare.osaka-info.jp/gotoeat/gs155854/"
  },
  {
    "name": "希望軒岸和田店",
    "address": "596-0803\n岸和田市 東大路町83-3",
    "tel": "072-488-7515",
    "openingHours": "",
    "tags": [
      "ラーメン・つけ麺",
      "泉州"
    ],
    "url": "https://goto-eat.weare.osaka-info.jp/gotoeat/gs155776/"
  },
  {
    "name": "酒菜　笑門",
    "address": "597-0061\n貝塚市 浦田117-1 メルローズ二色浜104",
    "tel": "072-437-6085",
    "openingHours": "11:30～14:00 17:00～22:30",
    "tags": [
      "居酒屋",
      "泉州"
    ],
    "url": "https://goto-eat.weare.osaka-info.jp/gotoeat/gs155200/"
  },
  {
    "name": "日本料理うおり",
    "address": "596-0045\n岸和田市 別所町1-19-21",
    "tel": "072-422-2381",
    "openingHours": "ランチ11:30～14:30　ディナー17:00～22:00",
    "tags": [
      "和食",
      "泉州"
    ],
    "url": "https://goto-eat.weare.osaka-info.jp/gotoeat/gs155121/"
  },
  {
    "name": "IGOKOCHI CAFE+",
    "address": "590-0500\n泉南市 りんくう南浜２－２１１",
    "tel": "072-477-9134",
    "openingHours": "８：００～１７：００",
    "tags": [
      "カフェ・スイーツ",
      "泉州"
    ],
    "url": "https://goto-eat.weare.osaka-info.jp/gotoeat/gs155015/"
  },
  {
    "name": "のらや熊取店",
    "address": "590-0451\n泉南郡熊取町 野田1-6-20",
    "tel": "072-451-3666",
    "openingHours": "平日11：30～15：00、17：30～21：30　",
    "tags": [
      "うどん・そば",
      "泉州"
    ],
    "url": "https://goto-eat.weare.osaka-info.jp/gotoeat/gs155012/"
  },
  {
    "name": "日本料理和み",
    "address": "598-0013\n泉佐野市 中町1-3-51",
    "tel": "072-462-4026",
    "openingHours": "11：00～21：00",
    "tags": [
      "ホテルレストラン",
      "泉州"
    ],
    "url": "https://goto-eat.weare.osaka-info.jp/gotoeat/gs154929/"
  },
  {
    "name": "やぶ果樹園",
    "address": "597-1010\n貝塚市 三ヶ山1218-1",
    "tel": "072-446-1777",
    "openingHours": "",
    "tags": [
      "鍋",
      "泉州"
    ],
    "url": "https://goto-eat.weare.osaka-info.jp/gotoeat/gs154926/"
  },
  {
    "name": "古民家そらcafe",
    "address": "597-0083\n貝塚市 海塚3-7-5",
    "tel": "072-493-8003",
    "openingHours": "ランチ11時～17時　ディナー土曜日のみ18時～21時",
    "tags": [
      "カフェ・スイーツ",
      "泉州"
    ],
    "url": "https://goto-eat.weare.osaka-info.jp/gotoeat/gs154912/"
  },
  {
    "name": "PIZZERIA BARACCHINO",
    "address": "598-0016\n泉佐野市 高松西１丁目２６２６－３９",
    "tel": "072-493-2338",
    "openingHours": "１１：３０～１５：００．１８：００～２２：００",
    "tags": [
      "イタリアン・フレンチ",
      "泉州"
    ],
    "url": "https://goto-eat.weare.osaka-info.jp/gotoeat/gs154869/"
  },
  {
    "name": "タリーズコーヒー　りんくうプレミアム・アウトレット店",
    "address": "598-8508\n泉佐野市 りんくう往来南３－２８",
    "tel": "072-458-1311",
    "openingHours": "9:30～20:00",
    "tags": [
      "カフェ・スイーツ",
      "泉州"
    ],
    "url": "https://goto-eat.weare.osaka-info.jp/gotoeat/gs154858/"
  },
  {
    "name": "アルベルゴ アスペラ",
    "address": "596-0845\n岸和田市 阿間河滝町１６４３",
    "tel": "080-6152-2220",
    "openingHours": "11:30-15:00",
    "tags": [
      "イタリアン・フレンチ",
      "泉州"
    ],
    "url": "https://goto-eat.weare.osaka-info.jp/gotoeat/gs154855/"
  },
  {
    "name": "グルメリア六甲",
    "address": "596-0044\n岸和田市 西之内町64-2",
    "tel": "072-438-0029",
    "openingHours": "11：30-22：00",
    "tags": [
      "焼肉・ホルモン",
      "泉州"
    ],
    "url": "https://goto-eat.weare.osaka-info.jp/gotoeat/gs154852/"
  },
  {
    "name": "花鮨",
    "address": "596-0042\n岸和田市 加守町1-19-7",
    "tel": "072-422-4678",
    "openingHours": "17時から23時",
    "tags": [
      "寿司・魚料理",
      "泉州"
    ],
    "url": "https://goto-eat.weare.osaka-info.jp/gotoeat/gs154224/"
  },
  {
    "name": "中国酒菜福見",
    "address": "596-0811\n岸和田市 下池田町2-10-1",
    "tel": "072-445-2992",
    "openingHours": "",
    "tags": [
      "中華料理",
      "泉州"
    ],
    "url": "https://goto-eat.weare.osaka-info.jp/gotoeat/gs154216/"
  },
  {
    "name": "旬彩食べ物なす",
    "address": "597-0033\n貝塚市 半田1-19-12",
    "tel": "072-426-4643",
    "openingHours": "",
    "tags": [
      "居酒屋",
      "泉州"
    ],
    "url": "https://goto-eat.weare.osaka-info.jp/gotoeat/gs154020/"
  },
  {
    "name": "イタリア大衆食堂 PASKO",
    "address": "596-0046\n岸和田市 藤井町1-15-5 『WIN和泉大宮』1階",
    "tel": "072-442-1007",
    "openingHours": "11:30～24:00（L.O.23:30）",
    "tags": [
      "イタリアン・フレンチ",
      "泉州"
    ],
    "url": "https://goto-eat.weare.osaka-info.jp/gotoeat/gs153975/"
  },
  {
    "name": "カジュアル割烹　花梨",
    "address": "596-0821\n岸和田市 小松里町2065 コマツビル103号",
    "tel": "072-441-8284",
    "openingHours": "11:30～13:30 18:00～22:00",
    "tags": [
      "和食",
      "泉州"
    ],
    "url": "https://goto-eat.weare.osaka-info.jp/gotoeat/gs153956/"
  },
  {
    "name": "海坊主八阪店",
    "address": "596-0825\n岸和田市 八坂町2-15-30",
    "tel": "072-436-1181",
    "openingHours": "17時-23時半",
    "tags": [
      "居酒屋",
      "泉州"
    ],
    "url": "https://goto-eat.weare.osaka-info.jp/gotoeat/gs153924/"
  },
  {
    "name": "犬鳴山温泉 不動口館",
    "address": "598-0023\n泉佐野市 大木7",
    "tel": "072-459-7326",
    "openingHours": "7：30から22：00",
    "tags": [
      "和食",
      "泉州"
    ],
    "url": "https://goto-eat.weare.osaka-info.jp/gotoeat/gs153796/"
  },
  {
    "name": "とと仁",
    "address": "596-0823\n岸和田市 下松町5048",
    "tel": "072-422-2249",
    "openingHours": "17:00～22:30",
    "tags": [
      "居酒屋",
      "泉州"
    ],
    "url": "https://goto-eat.weare.osaka-info.jp/gotoeat/gs153740/"
  },
  {
    "name": "薩摩地鶏炭火焼　あすか",
    "address": "596-0053\n岸和田市 沼町11-7 沼ハイツ101",
    "tel": "072-438-2911",
    "openingHours": "11時30～23時",
    "tags": [
      "居酒屋",
      "泉州"
    ],
    "url": "https://goto-eat.weare.osaka-info.jp/gotoeat/gs153582/"
  },
  {
    "name": "庄や　貝塚店",
    "address": "597-0001\n貝塚市 近木町1-5",
    "tel": "072-437-1471",
    "openingHours": "17:00-24:00/日祝17:00-23:00",
    "tags": [
      "居酒屋",
      "泉州"
    ],
    "url": "https://goto-eat.weare.osaka-info.jp/gotoeat/gs153671/"
  },
  {
    "name": "鎌倉パスタ　岸和田店",
    "address": "596-0048\n岸和田市 上野町西10-26",
    "tel": "072-437-7309",
    "openingHours": "",
    "tags": [
      "洋食・西洋料理",
      "泉州"
    ],
    "url": "https://goto-eat.weare.osaka-info.jp/gotoeat/gs153646/"
  },
  {
    "name": "新鮮鳥焼き　ぼんじり貝塚本店",
    "address": "597-0021\n貝塚市 小瀬1-25-45",
    "tel": "072-439-8900",
    "openingHours": "17：30～23：30",
    "tags": [
      "居酒屋",
      "泉州"
    ],
    "url": "https://goto-eat.weare.osaka-info.jp/gotoeat/gs153605/"
  },
  {
    "name": "和幸寿司",
    "address": "597-0081\n貝塚市 麻生中８１８－２４",
    "tel": "072-427-9182",
    "openingHours": "11時から22時",
    "tags": [
      "寿司・魚料理",
      "泉州"
    ],
    "url": "https://goto-eat.weare.osaka-info.jp/gotoeat/gs153102/"
  },
  {
    "name": "大戸屋ごはん処りんくうシークル店",
    "address": "598-0047\n泉佐野市 りんくう往来南3番地 りんくうプレジャータウンシークル2F",
    "tel": "072-468-7723",
    "openingHours": "11:00-22:00",
    "tags": [
      "和食",
      "泉州"
    ],
    "url": "https://goto-eat.weare.osaka-info.jp/gotoeat/gs153151/"
  },
  {
    "name": "LocaBran～ロカブラン～",
    "address": "596-0827\n岸和田市 上松町3046",
    "tel": "090-3464-8188",
    "openingHours": "11:00～15:00 18:00～22:00",
    "tags": [
      "イタリアン・フレンチ",
      "泉州"
    ],
    "url": "https://goto-eat.weare.osaka-info.jp/gotoeat/gs153028/"
  },
  {
    "name": "日本料理　貴船",
    "address": "598-0001\n泉佐野市 上瓦屋301-1",
    "tel": "072-464-3100",
    "openingHours": "",
    "tags": [
      "和食",
      "泉州"
    ],
    "url": "https://goto-eat.weare.osaka-info.jp/gotoeat/gs153000/"
  },
  {
    "name": "寿し英",
    "address": "596-0825\n岸和田市 土生町2-30-49",
    "tel": "072-439-0105",
    "openingHours": "",
    "tags": [
      "寿司・魚料理",
      "泉州"
    ],
    "url": "https://goto-eat.weare.osaka-info.jp/gotoeat/gs152972/"
  },
  {
    "name": "たから洲",
    "address": "590-0432\n泉南郡熊取町 小垣内3-5-56",
    "tel": "072-452-6611",
    "openingHours": "",
    "tags": [
      "寿司・魚料理",
      "泉州"
    ],
    "url": "https://goto-eat.weare.osaka-info.jp/gotoeat/gs152971/"
  },
  {
    "name": "炭火焼肉炭味",
    "address": "598-0021\n泉佐野市 日根野4288-1 ベルフォーレ日根野102",
    "tel": "072-415-4147",
    "openingHours": "17～23時",
    "tags": [
      "焼肉・ホルモン",
      "泉州"
    ],
    "url": "https://goto-eat.weare.osaka-info.jp/gotoeat/gs152968/"
  },
  {
    "name": "焼肉松ちゃん",
    "address": "597-0062\n貝塚市 澤645－4",
    "tel": "072-438-8929",
    "openingHours": "17：00－22：00",
    "tags": [
      "焼肉・ホルモン",
      "泉州"
    ],
    "url": "https://goto-eat.weare.osaka-info.jp/gotoeat/gs152967/"
  },
  {
    "name": "七輪焼レストラン花みずき",
    "address": "598-0005\n泉佐野市 市場東3-300",
    "tel": "072-461-3815",
    "openingHours": "昼11:30~L.o13:30　夜17:30~L.o21:45最終入店時刻21：00",
    "tags": [
      "居酒屋",
      "泉州"
    ],
    "url": "https://goto-eat.weare.osaka-info.jp/gotoeat/gs152966/"
  },
  {
    "name": "情熱ホルモン　羽倉崎酒場",
    "address": "598-0046\n泉佐野市 羽倉崎2-1-8",
    "tel": "072-490-3338",
    "openingHours": "17時から翌0時",
    "tags": [
      "焼肉・ホルモン",
      "泉州"
    ],
    "url": "https://goto-eat.weare.osaka-info.jp/gotoeat/gs152935/"
  },
  {
    "name": "せんしゅう地魚や",
    "address": "597-0003\n貝塚市 中町１－４",
    "tel": "072-432-3325",
    "openingHours": "17時から24時",
    "tags": [
      "居酒屋",
      "泉州"
    ],
    "url": "https://goto-eat.weare.osaka-info.jp/gotoeat/gs152930/"
  },
  {
    "name": "Laba-Laba",
    "address": "596-0825\n岸和田市 土生町5-3-29",
    "tel": "072-442-6308",
    "openingHours": "18:00から26:00",
    "tags": [
      "居酒屋",
      "泉州"
    ],
    "url": "https://goto-eat.weare.osaka-info.jp/gotoeat/gs152906/"
  },
  {
    "name": "カフェ&バー　Amaryllis",
    "address": "598-0093\n泉南郡田尻町 りんくうポート北3番地5",
    "tel": "072-490-0055",
    "openingHours": "",
    "tags": [
      "ホテルレストラン",
      "泉州"
    ],
    "url": "https://goto-eat.weare.osaka-info.jp/gotoeat/gs152902/"
  },
  {
    "name": "末広寿司",
    "address": "596-0823\n岸和田市 下松町４丁目５－２６",
    "tel": "072-427-5802",
    "openingHours": "１０時－１４時、１６時－２０時",
    "tags": [
      "寿司・魚料理",
      "泉州"
    ],
    "url": "https://goto-eat.weare.osaka-info.jp/gotoeat/gs152901/"
  },
  {
    "name": "旬彩dining sushi なかの",
    "address": "596-0054\n岸和田市 宮本町13-15 紀伊國屋ビル1F",
    "tel": "072-437-1711",
    "openingHours": "11:30～14:00 17:00～22：00",
    "tags": [
      "寿司・魚料理",
      "泉州"
    ],
    "url": "https://goto-eat.weare.osaka-info.jp/gotoeat/gs152750/"
  },
  {
    "name": "焼肉　仁家　泉南店",
    "address": "590-0503\n泉南市 新家6004",
    "tel": "072-485-2941",
    "openingHours": "11時半～23時",
    "tags": [
      "焼肉・ホルモン",
      "泉州"
    ],
    "url": "https://goto-eat.weare.osaka-info.jp/gotoeat/gs152702/"
  },
  {
    "name": "Dining 志",
    "address": "590-0457\n泉南郡熊取町 朝代東2-7-1 ニュー熊取タウン",
    "tel": "072-453-1711",
    "openingHours": "17:00～23:30",
    "tags": [
      "居酒屋",
      "泉州"
    ],
    "url": "https://goto-eat.weare.osaka-info.jp/gotoeat/gs152699/"
  },
  {
    "name": "魚料理　美松",
    "address": "596-0811\n岸和田市 下池田町2-11-10",
    "tel": "072-493-7797",
    "openingHours": "18.00～23.00",
    "tags": [
      "居酒屋",
      "泉州"
    ],
    "url": "https://goto-eat.weare.osaka-info.jp/gotoeat/gs152640/"
  },
  {
    "name": "かに問屋",
    "address": "596-0078\n岸和田市 南上町2丁目23-1",
    "tel": "072-438-7100",
    "openingHours": "11:30～15:00(Lo13:30) 17:00～22:00(Lo21:00)",
    "tags": [
      "和食",
      "泉州"
    ],
    "url": "https://goto-eat.weare.osaka-info.jp/gotoeat/gs152556/"
  },
  {
    "name": "鮨割烹匠",
    "address": "596-0057\n岸和田市 筋海町4-6",
    "tel": "072-439-1622",
    "openingHours": "11時30分～14時　17時～22時",
    "tags": [
      "寿司・魚料理",
      "泉州"
    ],
    "url": "https://goto-eat.weare.osaka-info.jp/gotoeat/gs152552/"
  },
  {
    "name": "モダンチャイニーズkita",
    "address": "597-0072\n貝塚市 畠中1丁目3-13",
    "tel": "072-432-6276",
    "openingHours": "",
    "tags": [
      "中華料理",
      "泉州"
    ],
    "url": "https://goto-eat.weare.osaka-info.jp/gotoeat/gs152407/"
  },
  {
    "name": "旬楽kitchen 子龍",
    "address": "598-0021\n泉佐野市 日根野7019 ウイング神藤",
    "tel": "072-457-5784",
    "openingHours": "18：00～【開店時間予約により応談】時短あり",
    "tags": [
      "居酒屋",
      "泉州"
    ],
    "url": "https://goto-eat.weare.osaka-info.jp/gotoeat/gs152266/"
  },
  {
    "name": "匠麺と旬の和食　よさこい",
    "address": "597-0013\n貝塚市 津田北町9-22",
    "tel": "072-437-4351",
    "openingHours": "",
    "tags": [
      "和食",
      "泉州"
    ],
    "url": "https://goto-eat.weare.osaka-info.jp/gotoeat/gs152256/"
  },
  {
    "name": "カフェ遊夢",
    "address": "598-0054\n泉佐野市 栄町9-2",
    "tel": "072-458-8775",
    "openingHours": "10時-20時",
    "tags": [
      "カフェ・スイーツ",
      "泉州"
    ],
    "url": "https://goto-eat.weare.osaka-info.jp/gotoeat/gs152137/"
  },
  {
    "name": "美味彩菜　十色",
    "address": "598-0021\n泉佐野市 日根野7039",
    "tel": "072-467-2522",
    "openingHours": "",
    "tags": [
      "和食",
      "泉州"
    ],
    "url": "https://goto-eat.weare.osaka-info.jp/gotoeat/gs152094/"
  },
  {
    "name": "うまいもんや とも",
    "address": "590-0457\n泉南郡熊取町 朝代東2-7-1",
    "tel": "072-487-5678",
    "openingHours": "10時から13時 18時から24時",
    "tags": [
      "居酒屋",
      "泉州"
    ],
    "url": "https://goto-eat.weare.osaka-info.jp/gotoeat/gs152058/"
  },
  {
    "name": "寿司よし",
    "address": "599-0303\n泉南郡岬町 深日１８８３-３",
    "tel": "072-492-2300",
    "openingHours": "１１時より21時まで",
    "tags": [
      "寿司・魚料理",
      "泉州"
    ],
    "url": "https://goto-eat.weare.osaka-info.jp/gotoeat/gs151692/"
  },
  {
    "name": "浜焼太郎岸和田店",
    "address": "596-0054\n岸和田市 宮本町5-1",
    "tel": "072-479-5123",
    "openingHours": "1７：00～24：00、日祝はお昼12：００～",
    "tags": [
      "居酒屋",
      "泉州"
    ],
    "url": "https://goto-eat.weare.osaka-info.jp/gotoeat/gs151686/"
  },
  {
    "name": "み奈美亭",
    "address": "598-0023\n泉佐野市 大木2236",
    "tel": "072-459-7336",
    "openingHours": "11:00～21:00",
    "tags": [
      "ホテルレストラン",
      "泉州"
    ],
    "url": "https://goto-eat.weare.osaka-info.jp/gotoeat/gs151608/"
  },
  {
    "name": "餃子の王将　南海岸和田店",
    "address": "596-0055\n岸和田市 五軒屋町15-19",
    "tel": "072-423-5355",
    "openingHours": "am11-pm22",
    "tags": [
      "中華料理",
      "泉州"
    ],
    "url": "https://goto-eat.weare.osaka-info.jp/gotoeat/gs151603/"
  },
  {
    "name": "呑喰処　うすい亭",
    "address": "596-0825\n岸和田市 土生町２丁目30-28 ドミールタチバナ土生",
    "tel": "072-438-0800",
    "openingHours": "１７：００～２２：００",
    "tags": [
      "居酒屋",
      "泉州"
    ],
    "url": "https://goto-eat.weare.osaka-info.jp/gotoeat/gs151558/"
  },
  {
    "name": "のみくいやつくし",
    "address": "596-0054\n岸和田市 宮本町23-2",
    "tel": "072-439-3355",
    "openingHours": "17時-23時",
    "tags": [
      "居酒屋",
      "泉州"
    ],
    "url": "https://goto-eat.weare.osaka-info.jp/gotoeat/gs151437/"
  },
  {
    "name": "餃子の王将　ラパーク岸和田店",
    "address": "596-0006\n岸和田市 春木若松町21-1",
    "tel": "0724-39-0400",
    "openingHours": "",
    "tags": [
      "中華料理",
      "泉州"
    ],
    "url": "https://goto-eat.weare.osaka-info.jp/gotoeat/gs151430/"
  },
  {
    "name": "洋食レストラン&ケーキ　PetitBois",
    "address": "596-0005\n岸和田市 春木旭町9-13",
    "tel": "072-493-3730",
    "openingHours": "ランチ11時～14時　ティータイム14時～16時　ディナー18時～21時半",
    "tags": [
      "洋食・西洋料理",
      "泉州"
    ],
    "url": "https://goto-eat.weare.osaka-info.jp/gotoeat/gs151413/"
  },
  {
    "name": "和み屋　昆野",
    "address": "596-0825\n岸和田市 土生町2丁目9-10 西谷商事ビル",
    "tel": "072-438-9886",
    "openingHours": "18時～23時",
    "tags": [
      "居酒屋",
      "泉州"
    ],
    "url": "https://goto-eat.weare.osaka-info.jp/gotoeat/gs151411/"
  },
  {
    "name": "タベルナ",
    "address": "596-0006\n岸和田市 春木若松町13-6",
    "tel": "072-488-7772",
    "openingHours": "18：00～0：00",
    "tags": [
      "イタリアン・フレンチ",
      "泉州"
    ],
    "url": "https://goto-eat.weare.osaka-info.jp/gotoeat/gs151409/"
  },
  {
    "name": "酒肴家えがお",
    "address": "596-0825\n岸和田市 土生町２丁目３０番１２号 泉洋ビル１０７号",
    "tel": "072-438-1863",
    "openingHours": "１７時～０時",
    "tags": [
      "居酒屋",
      "泉州"
    ],
    "url": "https://goto-eat.weare.osaka-info.jp/gotoeat/gs151388/"
  },
  {
    "name": "ラーメンハウスヒロ",
    "address": "596-0054\n岸和田市 宮本町16-1",
    "tel": "072-438-4411",
    "openingHours": "12:00~24:00",
    "tags": [
      "ラーメン・つけ麺",
      "泉州"
    ],
    "url": "https://goto-eat.weare.osaka-info.jp/gotoeat/gs151354/"
  },
  {
    "name": "台湾料理錦福香",
    "address": "598-0001\n泉佐野市 上瓦屋687-1 松浪ビル",
    "tel": "072-469-5798",
    "openingHours": "11:00ー14:30 17:00-23:00",
    "tags": [
      "中華料理",
      "泉州"
    ],
    "url": "https://goto-eat.weare.osaka-info.jp/gotoeat/gs151340/"
  },
  {
    "name": "アサヒビアホール漫画屋",
    "address": "598-0007\n泉佐野市 上町３ー１０ー１５ ロイヤルビルBー１",
    "tel": "072-464-7860",
    "openingHours": "17:00-24:00",
    "tags": [
      "イタリアン・フレンチ",
      "泉州"
    ],
    "url": "https://goto-eat.weare.osaka-info.jp/gotoeat/gs151270/"
  },
  {
    "name": "CreerCafe",
    "address": "596-0048\n岸和田市 上野町西15-16",
    "tel": "072-425-2273",
    "openingHours": "11:00~18:00",
    "tags": [
      "カフェ・スイーツ",
      "泉州"
    ],
    "url": "https://goto-eat.weare.osaka-info.jp/gotoeat/gs151250/"
  },
  {
    "name": "うまかもん貴桜",
    "address": "596-0054\n岸和田市 宮本町13-9",
    "tel": "072-437-6251",
    "openingHours": "17時から23時",
    "tags": [
      "居酒屋",
      "泉州"
    ],
    "url": "https://goto-eat.weare.osaka-info.jp/gotoeat/gs151237/"
  },
  {
    "name": "はや　泉州の郷",
    "address": "598-0001\n泉佐野市 上瓦屋８８６",
    "tel": "072-463-8988",
    "openingHours": "",
    "tags": [
      "焼肉・ホルモン",
      "泉州"
    ],
    "url": "https://goto-eat.weare.osaka-info.jp/gotoeat/gs151196/"
  },
  {
    "name": "焼肉　食道園",
    "address": "596-0052\n岸和田市 並松町21-32",
    "tel": "072-438-1205",
    "openingHours": "",
    "tags": [
      "焼肉・ホルモン",
      "泉州"
    ],
    "url": "https://goto-eat.weare.osaka-info.jp/gotoeat/gs151129/"
  },
  {
    "name": "一力寿司",
    "address": "596-0047\n岸和田市 上野町東11-19",
    "tel": "072-422-4527",
    "openingHours": "11:30-14:00 17:00-23:00",
    "tags": [
      "寿司・魚料理",
      "泉州"
    ],
    "url": "https://goto-eat.weare.osaka-info.jp/gotoeat/gs151111/"
  },
  {
    "name": "いづみや",
    "address": "596-0812\n岸和田市 大町４７５-7",
    "tel": "072-445-1858",
    "openingHours": "AM11:00 - PM7:50",
    "tags": [
      "うどん・そば",
      "泉州"
    ],
    "url": "https://goto-eat.weare.osaka-info.jp/gotoeat/gs151082/"
  },
  {
    "name": "星野亭",
    "address": "596-0044\n岸和田市 西ノ内町21-25",
    "tel": "072-441-2788",
    "openingHours": "11:30~14:00 18:00~22:00",
    "tags": [
      "和食",
      "泉州"
    ],
    "url": "https://goto-eat.weare.osaka-info.jp/gotoeat/gs151074/"
  }
]